,시도,주소,학교명,상태,위도,경도
0,경기,경기도 고양시 일산동구 장항동 580-20,백마초장항분교장,0,37.63856327724133,126.76960373809709
1,경기,경기도 고양시 일산동구 장항동 580-20,백마초장항분교장,0,37.63856327724133,126.76960373809709
2,경기,경기도 고양시 일산동구 장항동 580-20,백마초장항분교장,0,37.63856327724133,126.76960373809709
3,경기,경기도 고양시 일산동구 장항동 580-20,백마초장항분교장,0,37.63856327724133,126.76960373809709
4,경기,경기도 안성시 금산동 119,백성초,0,37.01092449015167,127.26755798527176
5,경기,경기도 안성시 금산동 119,백성초,0,37.01092449015167,127.26755798527176
6,경기,경기도 안성시 금산동 119,백성초,0,37.01092449015167,127.26755798527176
7,경기,경기도 안성시 금산동 119,백성초,0,37.01092449015167,127.26755798527176
8,경기,경기도 파주시 법원읍 법원리 500,법원초,0,37.85652712704329,126.8799818001882
9,경기,경기도 파주시 법원읍 법원리 500,법원초,0,37.85652712704329,126.8799818001882
10,경기,경기도 파주시 법원읍 법원리 500,법원초,0,37.85652712704329,126.8799818001882
11,경기,경기도 파주시 법원읍 법원리 500,법원초,0,37.85652712704329,126.8799818001882
12,경기,경기도 포천시 창수면 오가리 424,보장초,0,38.028158193887506,127.19162425513589
13,경기,경기도 포천시 창수면 오가리 424,보장초,0,38.028158193887506,127.19162425513589
14,경기,경기도 포천시 창수면 오가리 424,보장초,0,38.028158193887506,127.19162425513589
15,경기,경기도 포천시 창수면 오가리 424,보장초,0,38.028158193887506,127.19162425513589
16,경기,경기도 이천시 부발읍 고백리 42-3,부발초백록분교장,0,37.29547931035233,127.53982564392548
17,경기,경기도 이천시 부발읍 고백리 42-3,부발초백록분교장,0,37.29547931035233,127.53982564392548
18,경기,경기도 이천시 부발읍 고백리 42-3,부발초백록분교장,0,37.29547931035233,127.53982564392548
19,경기,경기도 이천시 부발읍 고백리 42-3,부발초백록분교장,0,37.29547931035233,127.53982564392548
20,경기,경기도 화성시 향남읍 상신리 874,상신초,0,37.0939031810057,126.90076275351049
21,경기,경기도 화성시 향남읍 상신리 874,상신초,0,37.0939031810057,126.90076275351049
22,경기,경기도 화성시 향남읍 상신리 874,상신초,0,37.0939031810057,126.90076275351049
23,경기,경기도 화성시 향남읍 상신리 874,상신초,0,37.0939031810057,126.90076275351049
24,경기,경기도 양평군 양동면 쌍학리 357,양동초단석분교장,0,37.40780045336822,127.74819913268448
25,경기,경기도 양평군 양동면 쌍학리 357,양동초단석분교장,0,37.40780045336822,127.74819913268448
26,경기,경기도 양평군 양동면 쌍학리 357,양동초단석분교장,0,37.40780045336822,127.74819913268448
27,경기,경기도 양평군 양동면 쌍학리 357,양동초단석분교장,0,37.40780045336822,127.74819913268448
28,경기,경기도 연천군 미산면 유촌리 625,연천왕산초마전분교장(B),0,38.04930170036382,126.98854325568071
29,경기,경기도 연천군 미산면 유촌리 625,연천왕산초마전분교장(B),0,38.04930170036382,126.98854325568071
30,경기,경기도 연천군 미산면 유촌리 625,연천왕산초마전분교장(B),0,38.04930170036382,126.98854325568071
31,경기,경기도 연천군 미산면 유촌리 625,연천왕산초마전분교장(B),0,38.04930170036382,126.98854325568071
32,경기,경기도 연천군 연천읍 고문리 259-1,연천초고문분교장,0,38.065223000424865,127.11306982169351
33,경기,경기도 연천군 연천읍 고문리 259-1,연천초고문분교장,0,38.065223000424865,127.11306982169351
34,경기,경기도 연천군 연천읍 고문리 259-1,연천초고문분교장,0,38.065223000424865,127.11306982169351
35,경기,경기도 연천군 연천읍 고문리 259-1,연천초고문분교장,0,38.065223000424865,127.11306982169351
36,경기,경기도 안성시 원곡면 성은리 35-1,원곡초성은분교장,0,37.07719934083218,127.16007353242166
37,경기,경기도 안성시 원곡면 성은리 35-1,원곡초성은분교장,0,37.07719934083218,127.16007353242166
38,경기,경기도 안성시 원곡면 성은리 35-1,원곡초성은분교장,0,37.07719934083218,127.16007353242166
39,경기,경기도 안성시 원곡면 성은리 35-1,원곡초성은분교장,0,37.07719934083218,127.16007353242166
40,경기,경기도 연천군 전곡읍 늘목리 111-2,전곡초적동분교장,0,37.940531141483866,127.00080998058422
41,경기,경기도 연천군 전곡읍 늘목리 111-2,전곡초적동분교장,0,37.940531141483866,127.00080998058422
42,경기,경기도 연천군 전곡읍 늘목리 111-2,전곡초적동분교장,0,37.940531141483866,127.00080998058422
43,경기,경기도 연천군 전곡읍 늘목리 111-2,전곡초적동분교장,0,37.940531141483866,127.00080998058422
44,경기,경기도 여주시 점동면 뇌곡리 172-1,점동초뇌곡분교장,0,37.16217243328517,127.66083474058132
45,경기,경기도 여주시 점동면 뇌곡리 172-1,점동초뇌곡분교장,0,37.16217243328517,127.66083474058132
46,경기,경기도 여주시 점동면 뇌곡리 172-1,점동초뇌곡분교장,0,37.16217243328517,127.66083474058132
47,경기,경기도 여주시 점동면 뇌곡리 172-1,점동초뇌곡분교장,0,37.16217243328517,127.66083474058132
48,경기,경기도 여주시 점동면 장안리 478,점동초안평분교장,0,37.202729030685504,127.71139964022015
49,경기,경기도 여주시 점동면 장안리 478,점동초안평분교장,0,37.202729030685504,127.71139964022015
50,경기,경기도 여주시 점동면 장안리 478,점동초안평분교장,0,37.202729030685504,127.71139964022015
51,경기,경기도 여주시 점동면 장안리 478,점동초안평분교장,0,37.202729030685504,127.71139964022015
52,경기,경기도 양평군 지평면 일신리 674,지평초일신분교장,0,37.43392097578844,127.68664571218835
53,경기,경기도 양평군 지평면 일신리 674,지평초일신분교장,0,37.43392097578844,127.68664571218835
54,경기,경기도 양평군 지평면 일신리 674,지평초일신분교장,0,37.43392097578844,127.68664571218835
55,경기,경기도 양평군 지평면 일신리 674,지평초일신분교장,0,37.43392097578844,127.68664571218835
56,경기,경기도 남양주시 화도읍 녹촌리 272,마석초녹촌분교장,0,37.65193024306056,127.28634477381887
57,경기,경기도 남양주시 화도읍 녹촌리 272,마석초녹촌분교장,0,37.65193024306056,127.28634477381887
58,경기,경기도 남양주시 화도읍 녹촌리 272,마석초녹촌분교장,0,37.65193024306056,127.28634477381887
59,경기,경기도 남양주시 화도읍 녹촌리 272,마석초녹촌분교장,0,37.65193024306056,127.28634477381887
60,경기,경기도 화성시 서신면 제부리 23-1,서신초제부분교장,0,37.169880718736465,126.6262502037246
61,경기,경기도 화성시 서신면 제부리 23-1,서신초제부분교장,0,37.169880718736465,126.6262502037246
62,경기,경기도 화성시 서신면 제부리 23-1,서신초제부분교장,0,37.169880718736465,126.6262502037246
63,경기,경기도 화성시 서신면 제부리 23-1,서신초제부분교장,0,37.169880718736465,126.6262502037246
64,경기,경기도 이천시 모가면 신갈리 134-1,진가초모가분교장,0,37.202460457128076,127.4481468812488
65,경기,경기도 이천시 모가면 신갈리 134-1,진가초모가분교장,0,37.202460457128076,127.4481468812488
66,경기,경기도 이천시 모가면 신갈리 134-1,진가초모가분교장,0,37.202460457128076,127.4481468812488
67,경기,경기도 이천시 모가면 신갈리 134-1,진가초모가분교장,0,37.202460457128076,127.4481468812488
68,부산,부산광역시 사하구 감천동 10-2,감정초,0,35.096986464073424,129.01086293615046
69,부산,부산광역시 강서구 명지동 1336,명지초,0,35.1064279073492,128.92536448747015
70,부산,부산광역시 강서구 송정동 1437-19,송정초,0,35.106358771160366,128.842385863199
71,부산,부산광역시 남구 대연동 1788-2,연포초,0,35.139370824615305,129.08127426004685
72,부산,부산광역시 기장군 정관읍 방곡리 412,정관초,0,35.32267738925393,129.18649365516285
73,부산,부산광역시 동구 좌천동 874,좌천초,0,35.13552485134929,129.04848568069818
74,부산,부산광역시 동구 수정동 363-4,중앙초,0,35.12356801578381,129.04294322588086
75,부산,부산광역시 금정구 회동동 143-1,회동초,0,35.22964853038704,129.1209190597284
76,부산,부산광역시 강서구 눌차동 587,눌차초,0,35.068734026959845,128.84102667639945
77,부산,부산광역시 강서구 강동동 2273-1,덕도초,0,35.192091872135045,128.91578256823732
78,부산,부산광역시 강서구 대항동 175,천가초대항분교장,0,35.011069337565175,128.8279906580855
79,부산,부산광역시 강서구 천성동 813,천가초천성분교장,0,35.03141497758689,128.81312197518258
80,대구,대구광역시 북구 산격동 1285,대동초,0,35.89765566945,128.61190828368512
81,대구,대구광역시 북구 노원동3가 262,삼영초,0,35.89391517295803,128.56302808043392
82,대구,대구광역시 달성군 유가읍 유곡리 978,유가초,0,35.66969834531558,128.45498669094462
83,인천,인천광역시 옹진군 영흥면 선재리 3,영흥초선재분교,0,37.23789360761297,126.53426122466027
84,인천,인천광역시 강화군 교동면 난정리 1282,난정초교,0,37.770527990340426,126.23934888700336
85,인천,인천광역시 강화군 서도면 볼음도리 596-1,서도초볼음분교,0,37.67117380959977,126.19050549365414
86,광주,광주광역시 광산구 하남동 395,하남초,0,35.18504989846633,126.7928070350215
87,울산,울산광역시 울주군 상북면 궁근정리 564-1,궁근정초,0,35.615530035991114,129.0675349390051
88,울산,울산광역시 울주군 상북면 길천리 401,길천초,0,35.58538324386497,129.084448860652
89,울산,울산광역시 울주군 두동면 봉계리 1030-3,봉월초,0,35.70181164748889,129.20712853984705
90,울산,울산광역시 울주군 상북면 이천리 377,이천분교,0,35.54205158484567,129.01336925553196
91,울산,울산광역시 울주군 상북면 향산리 344,향산초,0,35.58207653187458,129.09968687901576
92,강원,강원도 춘천시 남면 가정리 838-1,가정초,0,37.736823049026434,127.57758397182309
93,강원,강원도 횡성군 갑천면 하대리 44,갑천초금성분교장,0,37.53812911594103,128.16223162261682
94,강원,강원도 횡성군 강림면 부곡리 617,강림초부곡분교장,0,37.331367602956135,128.08642524243768
95,강원,강원도 평창군 진부면 신기리 190,거문초신기분교장,0,37.59565352587307,128.56263661963965
96,강원,강원도 고성군 거진읍 송정리 139,거진초송정분교장,0,38.4423264653849,128.42255016589658
97,강원,강원도 평창군 방림면 계촌리 520,계촌초대미분교장,0,37.490989347958376,128.30394528326534
98,강원,강원도 횡성군 공근면 초원리 134-1,공근초광덕분교장,0,37.52857007172989,127.92648779110893
99,강원,강원도 홍천군 내촌면 와야리 881-1,내촌초와야분교장,0,37.804972880849796,128.13017974758085
100,강원,강원도 평창군 진부면 두일리 144-2,두일초,0,37.68788046026835,128.56044821639983
101,강원,강원도 횡성군 둔내면 화동리 504-1,둔내초덕성분교장,0,37.566902821754354,128.22660056370134
102,강원,강원도 횡성군 둔내면 영랑리 363,둔내초영호분교장,0,37.46627923222988,128.1897833477962
103,강원,강원도 영월군 북면 연덕리 604-4,마차초연덕분교장,0,37.287880685621815,128.42667638396335
104,강원,강원도 원주시 문막읍 취병리 358,문막초취병분교장,0,37.31120473614534,127.80060132421646
105,강원,강원도 태백시 하사미동 163-1,미동초하사미분교장,0,37.304227277152684,128.99129333540006
106,강원,강원도 정선군 화암면 백전리 101-2,백전초용소분교장,0,37.248821056301864,128.89725208154405
107,강원,강원도 정선군 사북읍 사북리 270,사음초,0,37.228553772288386,128.8346240309724
108,강원,강원도 화천군 상서면 노동리 504-2,상승초노동분교,0,38.176658346868074,127.67171394803029
109,강원,강원도 횡성군 공근면 부창리 208-5,상창초,0,37.59499175433275,128.00247672672492
110,강원,강원도 홍천군 서석면 수하리 398-3,서석초항곡분교장,0,37.7656797277838,128.1771598106343
111,강원,강원도 홍천군 동면 노천리 1441,속초초노천분교장,0,37.668391546376,128.01414445250757
112,강원,강원도 평창군 평창읍 약수리 160,약수초,0,37.35068596027249,128.3698741603563
113,강원,강원도 정선군 여량면 구절리 276-1,여량초구절분교장,0,37.51485518024253,128.73216051312258
114,강원,강원도 정선군 신동읍 고성리 812,예미초고성분교장,0,37.25767114145235,128.59724942943026
115,강원,강원도 삼척시 가곡면 풍곡리 617,오저초풍곡분교장,0,37.12632849808719,129.15699461504101
116,강원,강원도 강릉시 옥계면 남양리 528,옥계초남양분교장,0,37.5806011862103,129.0311972380733
117,강원,강원도 영월군 김삿갓면 내리 40,옥동초조제분교장,0,37.07015062023085,128.7554161220196
118,강원,강원도 강릉시 왕산면 고단리 32-18,왕산초고단분교장,0,37.51994263738633,128.8486589898121
119,강원,강원도 홍천군 내면 방내리 797-5,율전초방내분교장,0,37.82613023989704,128.26515739758062
120,강원,강원도 정선군 임계면 가목리 107,임계초군대분교장,0,37.5278128788472,128.94202422079667
121,강원,강원도 정선군 임계면 문래리 423-1,임계초문래분교장,0,37.414194098895024,128.85363683008114
122,강원,강원도 홍천군 홍천읍 와동리 275,주봉초와동분교장,0,37.72729790016313,127.94168498699949
123,강원,강원도 고성군 현내면 죽정리 365,죽정초,0,38.46994488294989,128.42017322348764
124,강원,강원도 홍천군 내면 자운리 413,창촌초운두분교장,0,37.73044706715037,128.40236747453042
125,강원,강원도 태백시 백산동 89,철암초백산분교장,0,37.13777126648945,129.03488504677009
126,강원,강원도 홍천군 북방면 노일리 469-1,화계초노일분교장,0,37.67586288422281,127.74773614552912
127,강원,강원도 홍천군 북방면 성동리 642-5,화계초성동분교장,0,37.74352459394967,127.8778562685537
128,강원,강원도 정선군 화암면 북동리 182,화동초북동분교장,0,37.38006719613695,128.7929443119449
129,강원,강원도 태백시 화전동 167-2,화전초,0,37.202540750204,128.95542457749605
130,강원,강원도 횡성군 갑천면 추동리 70-14,횡성초당평분교장,0,37.566188512368576,128.04012976642701
131,강원,강원도 철원군 갈말읍 강포리 81-4,강포초,0,38.11600910762917,127.29414551826444
132,강원,강원도 원주시 귀래면 귀래리 1343,귀래초귀운분교장,0,37.22414983427234,127.86349374391823
133,강원,강원도 삼척시 노곡면 하월산리 162-3,근덕초노곡분교장,0,37.348049667228615,129.16340999593754
134,강원,강원도 삼척시 근덕면 동막리 381,근덕초동막분교장,0,37.33868396860596,129.2434906970307
135,강원,강원도 삼척시 노곡면 중마읍리 10,근덕초마읍분교장,0,37.257257261682895,129.17832376177054
136,강원,강원도 양양군 현북면 도리 19,남천초,0,38.00327287970132,128.63070053974465
137,강원,강원도 인제군 남면 신월리 244,부평초신월분교장,0,38.02846266313933,128.07659974065058
138,강원,강원도 영월군 중동면 연상리 70-1,영월초연상분교장,0,37.19881068228972,128.61421762437095
139,강원,강원도 횡성군 청일면 신대리 321-1,청일초신대분교장,0,37.592752968399225,128.21856474155106
140,강원,강원도 삼척시 하장면 갈전리 365,하장초갈전분교장,0,37.382976390210274,128.8940935582405
141,강원,강원도 삼척시 하장면 역둔리 26-3,하장초역둔분교장,0,37.29408401372872,128.8811446969633
142,강원,강원도 삼척시 원덕읍 노곡리 142-2,호산초노실분교장,0,37.202155988778564,129.34164568728642
143,충북,충청북도 청주시 상당구 남일면 두산리 106-1,남일초두산폐교,0,36.55751423932335,127.53988829688468
144,충북,충청북도 보은군 내북면 동산리 119,내북초장,0,36.5786072871454,127.65771754790748
145,충북,충청북도 충주시 노은면 안락리 119-1,노은초수상분교,0,37.051367581498695,127.71567266768658
146,충북,충청북도 단양군 대강면 장정리 30,대강초장정분교장,0,36.84648870442713,128.39555218936778
147,충북,충청북도 옥천군 이원면 의평리 276-2,대성초,0,36.212975885469405,127.63022301112484
148,충북,충청북도 영동군 양강면 유점리 697-3,미봉초,0,36.1274165825992,127.72697405515522
149,충북,충청북도 충주시 엄정면 목계리 111,엄정초목계분교,0,37.081303766791116,127.8903279738533
150,충북,충청북도 청주시 청원구 오창읍 유리 394,오창초유리폐교,0,36.75454545316021,127.47598322174039
151,충북,충청북도 청주시 서원구 남이면 부용외천리 290,외천폐교,0,36.54127250031475,127.43285195097069
152,충북,충청북도 옥천군 이원면 지탄리 734-5,이원초지탄분교장,0,36.24394367307225,127.68222097393887
153,충북,충청북도 충주시 중앙탑면 탑평리 212-1,중앙탑초,0,37.026784803302824,127.8553477133125
154,충북,충청북도 충주시 앙성면 목미리 89-2,강천초,0,37.162568481956015,127.75218772667806
155,충북,충청북도 음성군 음성읍 삼생리 94,남신초덕생분교장,0,36.91415843071939,127.623313579226
156,충북,충청북도 청주시 흥덕구 내곡동 10-2,내곡초,0,36.6602054865078,127.42855530826584
157,충북,충청북도 단양군 단성면 가산리 290,단천초가산분교장,0,36.89351454729364,128.3055603260359
158,충북,충청북도 진천군 덕산면 산수리 465-1,매산분교,0,36.885736044581385,127.48107698427543
159,충북,충청북도 괴산군 불정면 추산리 545-2,목도초추산초,0,36.9025350094293,127.81758852325544
160,충북,충청북도 괴산군 청천면 덕평리 280,문광초덕평분교,0,36.73043874081679,127.79686334557407
161,충북,충청북도 진천군 이월면 신월리 317-16,상신초,0,36.92363956081771,127.46658124926785
162,충북,충청북도 음성군 소이면 대장리 374-1,소이초대장분교장,0,36.92394885847972,127.75200085707905
163,충북,충청북도 보은군 속리산면 삼가리 140,수정초삼가분교장,0,36.491157537884575,127.86002721897808
164,충북,충청북도 단양군 영춘면 의풍리 760,영춘초의풍분교장,0,37.06606200246629,128.61240692767404
165,충북,충청북도 청주시 청원구 오창읍 가좌리 129,오창초가좌폐교,0,36.73588298590473,127.36665081412008
166,충북,충청북도 진천군 덕산면 옥동리 359-2,옥동초,0,36.88850782881935,127.50876246494255
167,충북,충청북도 청주시 흥덕구 옥산면 소로리 313-1,옥산초소로분교,0,36.68838807150864,127.40409605244835
168,충남,충청남도 논산시 양촌면 인천리 66,동산초,0,36.13996387265063,127.24105103132436
169,충남,충청남도 논산시 성동면 병촌리 351,성광초,0,36.19251556712117,127.01229208783238
170,충남,충청남도 서천군 장항읍 송림리 890-56,송림초유부도분교,0,35.99495737201551,126.60086794212464
171,충남,충청남도 부여군 세도면 귀덕리 503,인세초,0,36.16669534716885,126.97283646332285
172,충남,충청남도 서산시 인지면 모월리 311-2,인지초인정분교,0,36.723342564066364,126.42240741312305
173,충남,충청남도 홍성군 장곡면 천태리 630-5,장곡초반계분교,0,36.506394363093435,126.75308486320229
174,충남,충청남도 논산시 노성면 호암리 312,호암초,0,36.304218203917905,127.08736515107157
175,충남,충청남도 홍성군 광천읍 옹암리 353-2,광남초,0,36.491864734253696,126.61792695518473
176,충남,충청남도 홍성군 갈산면 취생리 250,광성초,0,36.63896351702528,126.53018547910109
177,충남,충청남도 홍성군 광천읍 광천리 345,광신초,0,36.497766719493704,126.62975140291368
178,충남,충청남도 부여군 남면 회동리 333-2,남성초,0,36.21153979850389,126.80577015308279
179,충남,충청남도 홍성군 광천읍 대평리 318,대평초,0,36.51649131088436,126.66208731434295
180,충남,충청남도 홍성군 광천읍 신진리 402,덕명초,0,36.505353117469866,126.62471893552927
181,충남,충청남도 당진시 대호지면 사성리 35-9,도성초,0,36.93232576149752,126.51358836024392
182,충남,충청남도 서산시 해미면 반양리 395,반양초,0,36.72101841076103,126.54093803555156
183,충남,충청남도 금산군 복수면 용진리 405-1,복수초용진분교,0,36.17149063503491,127.43141845462058
184,충남,충청남도 홍성군 장곡면 광성리 28,장곡초오서분교,0,36.48582426769582,126.67809861783509
185,충남,충청남도 공주시 이인면 주봉리 250-4,주봉초,0,36.38693449919655,127.0789289585652
186,충남,충청남도 공주시 계룡면 중장리 422-1,중장초,0,36.368516597598905,127.16507697931259
187,충남,충청남도 태안군 소원면 파도리 617-3,파도초,0,36.7381649452421,126.13477542495045
188,전북,전라북도 정읍시 고부면 관청리 548,관청초,0,35.61559416536689,126.74444840976416
189,전북,전라북도 익산시 성당면 두동리 702,금성초,0,36.12204034033177,126.92037285169435
190,전북,전라북도 부안군 보안면 하입석리 573-2,보안초,0,35.621821540196514,126.68972211749715
191,전북,전라북도 무주군 적상면 삼유리 572,삼방초,0,35.922834414357816,127.61347791239277
192,전북,전라북도 익산시 망성면 내촌리 92,성남초,0,36.099436176399045,127.04914582997564
193,전북,전라북도 익산시 여산면 원수리 465-4,여산남초,0,36.04087930495065,127.09534700678677
194,전북,전라북도 익산시 여산면 두여리 1184-2,여산서초,0,36.07020605522499,127.06077014414144
195,전북,전라북도 정읍시 감곡면 용곽리 256,용곽초,0,35.72969956597888,126.8884364185046
196,전북,전라북도 장수군 계북면 원촌리 1247,원촌초,0,35.81051866131932,127.63087784400601
197,전북,전라북도 군산시 내초동 66,해성초내초분교,0,35.95097250615164,126.59193835551106
198,전북,전라북도 정읍시 정우면 회룡리 108-2,회룡초,0,35.65724592551478,126.90785871167778
199,전남,전라남도 장흥군 관산읍 죽청리 418-3,관산초영성분교장,0,34.58080829968924,126.96751216804671
200,전남,전라남도 해남군 송지면 군곡리 435,군곡초,0,34.40568007573545,126.53487167559528
201,전남,전라남도 나주시 토계동 318,나주초이화분교장,0,35.020123023137714,126.7294543601192
202,전남,전라남도 순천시 낙안면 창녕리 572,낙안초창녕분교장,0,34.92019212188637,127.38763820457764
203,전남,전라남도 고흥군 대서면 안남리 626,대서초안남분교장,0,34.7497750496493,127.27098032980642
204,전남,전라남도 영암군 도포면 영호리 194,도포초도신분교장,0,34.86510488463798,126.6537323017436
205,전남,전라남도 영암군 도포면 수산리 282-4,도포초수산분교장,0,34.83678569516675,126.66766096947599
206,전남,전라남도 여수시 돌산읍 우두리 170,백초초우두분교장,0,34.71430862584679,127.77682828116416
207,전남,전라남도 영광군 법성면 신장리 868,법성포초진량분교장,0,35.33015694184879,126.47697547174013
208,전남,전라남도 담양군 봉산면 양지리 135-1,봉산초양지분교장,0,35.25375477073849,126.94825804762144
209,전남,전라남도 고흥군 포두면 송산리 981,송산초,0,34.60243362776171,127.36061509187002
210,전남,전라남도 여수시 관문동 8-5,여수자산초,0,34.74289919044964,127.74536249587109
211,전남,전라남도 여수시 남면 연도리 424,연도초여남중연도분교장,0,34.43269159361354,127.80085454150377
212,전남,전라남도 영광군 영광읍 계송리 667,영광서초,0,35.3005743889346,126.52018972135993
213,전남,전라남도 보성군 득량면 송곡리 787,예당초득량분교장,0,34.776517949732714,127.16152820634235
214,전남,전라남도 목포시 옥암동 240-1,옥남초,0,34.81794853699821,126.45278620041375
215,전남,전라남도 해남군 황산면 옥동리 920,옥동초,0,34.57698845676871,126.37515232885357
216,전남,전라남도 진도군 의신면 초사리 102,의동초,0,34.422230130199985,126.33359829897823
217,전남,전라남도 무안군 일로읍 죽산리 22,일로죽산분교장,0,34.8160337032697,126.51026316118588
218,전남,전라남도 진도군 지산면 가치리 904-3,지산서초,0,34.43444388463315,126.12242342349954
219,전남,전라남도 고흥군 풍양면 고옥리 272-1,풍양초고옥분교장,0,34.57091134082362,127.21176906434937
220,전남,전라남도 순천시 해룡면 농주리 12,해룡초농주분교장,0,34.858814678933285,127.53737999019688
221,전남,전라남도 순천시 황전면 선변리 745,황전북초용림분교장,0,35.15939754068101,127.45796825789714
222,전남,전라남도 여수시 삼산면 덕촌리 814-1,거문초덕촌분교장,0,34.02530979275622,127.3035247577269
223,전남,전라남도 여수시 삼산면 서도리 25,거문초서도분교장,0,34.05592851076617,127.29635085448909
224,전남,전라남도 담양군 가사문학면 인암리 238,남면초인암분교장,0,35.1438174353853,127.06163626904934
225,전남,전라남도 완도군 노화읍 구석리 925,노화동초,0,34.20512119631845,126.6029878040868
226,전남,전라남도 함평군 대동면 금산리 422-7,대동향교초대신분교장,0,35.12363010977755,126.49442165581556
227,전남,전라남도 영암군 도포면 영호리 919-10,도포초영농분교장,0,34.87138193676137,126.64736243156143
228,전남,전라남도 해남군 문내면 석교리 1528-2,문내동초,0,34.60032646061525,126.35133476650864
229,전남,전라남도 해남군 문내면 고당리 179,문내초,0,34.632642732853974,126.34836128001007
230,전남,전라남도 나주시 문평면 옥당리 1119,문평남초,0,35.02980964600811,126.61088941524878
231,전남,전라남도 영광군 백수읍 논산리 10,백수초백수동분교장,0,35.296633411601256,126.44982502204358
232,전남,전라남도 보성군 벌교읍 장양리 793,벌교초제석분교장,0,34.84686829181355,127.36459963624485
233,전남,전라남도 순천시 별량면 마산리 249-1,별량초마산분교장,0,34.845280833087934,127.45190903318716
234,전남,전라남도 완도군 예작도길 1-13 예작분교,보길동초예작분교장,0,34.13533691196859,126.56845711392208
235,전남,전라남도 해남군 산이면 금호리 539,산이서초금호분교장,0,34.690939258283485,126.3627466914478
236,전남,전라남도 나주시 산포면 덕례리 296,산포초덕례분교장,0,35.050576884294465,126.81255265221101
237,전남,전라남도 순천시 상사면 쌍지리 250,상사초쌍지분교장,0,34.93271820529732,127.41481076107142
238,전남,전라남도 진도군 임회면 백동리 633,석교초용등분교장,0,34.37983619824453,126.19059000433376
239,전남,전라남도 나주시 세지면 내정리 6-3,세지북초,0,34.95081399493955,126.73769600964165
240,전남,전라남도 영암군 시종면 금지리 1078,시종초종남분교장,0,34.89842410872067,126.60859545191109
241,전남,전라남도 영암군 신북면 학동리 468,신북초신북서분교장,0,34.92870443040442,126.67899288760242
242,전남,전라남도 여수시 남면 연도리 881,연도초역포분교장,0,34.45078749973546,127.80050056435621
243,전남,전라남도 영광군 염산면 야월리 300,염산초야월분교장,0,35.22986478746736,126.31904595645986
244,전남,전라남도 영광군 영광읍 덕호리 128,영광중앙초월송분교장,0,35.306369326733474,126.4854058880527
245,전남,전라남도 함평군 학교면 사거리 172,영창초,0,35.031728279675676,126.53520565846488
246,전남,전라남도 해남군 문내면 무고리 806,우수영초중화분교장,0,34.63825042165669,126.30730547491727
247,전남,전라남도 보성군 웅치면 중산리 50,웅치초,0,34.71688787510922,127.02128786618016
248,전남,전라남도 화순군 이양면 금능리 80-2,이양초금능분교장,0,34.924138290739286,126.99625707305454
249,전남,전라남도 진도군 조도면 동거차도리 30-6,조도초동거차분교장,0,34.238325039839374,125.93896237206788
250,전남,전라남도 순천시 주암면 어왕리 1,주암초어왕분교장,0,35.097519987793945,127.23704367903423
251,전남,전라남도 광양시 진상면 황죽리 250-18,진상초황죽분교장,0,35.05276873908745,127.68809172779848
252,전남,전라남도 광양시 진월면 월길리 714,진월초월길분교장,0,35.0345227263149,127.75636879795259
253,전남,전라남도 여수시 삼산면 초도리 산404,초도초,0,34.23838606292157,127.24929764006271
254,전남,전라남도 무안군 해제면 유월리 561,해제동초,0,35.11314141089575,126.3177061831985
255,전남,전라남도 무안군 현경면 해운리 523,현경초해운분교장,0,35.06027256606965,126.46352640220873
256,전남,전라남도 영광군 홍농읍 가곡리 243,홍농초동명분교장,0,35.401959515838215,126.47285295949594
257,전남,전라남도 해남군 화산면 평호리 12-1,화산남초,0,34.45199653943778,126.48442233165865
258,전남,전라남도 해남군 화원면 매월리 245,화원초화원북분교장,0,34.73293013427845,126.30028839278143
259,전남,전라남도 여수시 남면 횡간리 251,화태초여동분교장,0,34.579814182204515,127.75980675112869
260,전남,전라남도 순천시 황전면 대치리 435,황전초대치분교장,0,35.1267843212104,127.46800633493065
261,경북,경상북도 예천군 감천면 덕율리 143,감천초덕율분교장,0,36.70467625282404,128.50524917210822
262,경북,경상북도 경주시 강동면 단구리 1147,강동초단구분교장,0,36.05140800539766,129.2442136285699
263,경북,경상북도 경주시 강동면 왕신리 669-1,강동초왕신분교장,0,35.96740405612125,129.2911240465171
264,경북,경상북도 상주시 공성면 금계리 33,공서초,0,36.29980310183796,128.0777621917735
265,경북,경상북도 김천시 구성면 양각리 402,구성초양각분교장,0,36.083053070213204,128.07940095961402
266,경북,경상북도 청도군 운문면 신원리 1230-1,금천초문명분교장,0,35.68484946876278,128.9611661132841
267,경북,경상북도 예천군 호명면 월포리 382,남부초인포분교장,0,36.62023095433223,128.47902273294076
268,경북,경상북도 경산시 남산면 하대리 370,남산초삼성분교장,0,35.79555809294933,128.80429354310806
269,경북,경상북도 울릉군 서면 태하리 521-2,남양초태하분교장,0,37.512973855160226,130.80203567082546
270,경북,경상북도 군위군 부계면 대율리 644-1,대율초,0,36.062667313298185,128.65466730220268
271,경북,경상북도 포항시 남구 동해면 흥환리 357,동해초흥환분교장,0,36.02335602607704,129.50307696622434
272,경북,경상북도 청도군 매전면 온막리 42-4,매전초,0,35.64229819679276,128.83806134150322
273,경북,경상북도 봉화군 물야면 개단리 844-2,물야초개단분교장,0,36.96663273879653,128.76131752717578
274,경북,경상북도 청도군 금천면 방지리 1203,방지초,0,35.7125577945056,128.9086597320071
275,경북,경상북도 고령군 쌍림면 백산리 163,백산초,0,35.675985848233225,128.2089306235835
276,경북,경상북도 영주시 봉현면 두산리 210,봉현서부초,0,36.87173627296251,128.50190917475905
277,경북,경상북도 영주시 부석면 남대리 354,부석초남대분교장,0,37.04639614029636,128.65526945670615
278,경북,경상북도 의성군 사곡면 양지리 550,사곡초,0,36.30696991342657,128.78716901153254
279,경북,경상북도 구미시 산동면 송산리 243,산동초송백분교장,0,36.21517203756886,128.47853964564078
280,경북,경상북도 울진군 금강송면 광회리 310,삼근초광회분교장,0,36.945769445546645,129.10320896965342
281,경북,경상북도 의성군 금성면 제오리 904-1,상천초,0,36.285480799102615,128.70428829307343
282,경북,경상북도 영양군 수비면 신암리 167-1,수비초신암분교장,0,36.85587182335955,129.1844714148775
283,경북,경상북도 문경시 호계면 견탄리 500-5,신기초대성분교장,0,36.64773266198424,128.15226215756468
284,경북,경상북도 경산시 진량읍 신상리 343-1,신상초,0,35.87483683681436,128.82134681530732
285,경북,경상북도 경산시 압량면 부적리 601,압량초,0,35.84314080435053,128.7613006848838
286,경북,경상북도 경주시 양북면 송전리 94,양북초송전분교장,0,35.76563306574574,129.4271472133531
287,경북,경상북도 문경시 영순면 말응리 524,영순초영창분교장,0,36.54499837202114,128.24607519262864
288,경북,경상북도 영천시 작산동 56,영천남부초,0,35.94129908533039,128.9575209860573
289,경북,경상북도 영덕군 영해면 괴시리 490,영해초영해동부분교장,0,36.554996925284364,129.42633021622885
290,경북,경상북도 안동시 옥야동 328-2,영호초,0,36.562114897691934,128.7235484973568
291,경북,경상북도 구미시 선산읍 북산리 587,예산초,0,36.215198418185174,128.2642794131715
292,경북,경상북도 경주시 탑동 676-2,오릉초,0,35.819907257853444,129.21381072474864
293,경북,경상북도 포항시 북구 용흥동 340,용흥중,0,36.03735221660652,129.35099017660022
294,경북,경상북도 고령군 우곡면 도진리 270,우곡초도진분교장,0,35.675943093757326,128.3432155918247
295,경북,경상북도 경주시 산내면 우라리 988-1,의곡초우라분교장,0,35.81193812316149,129.0129983045687
296,경북,경상북도 영양군 청기면 당리 536-3,일월초청북분교장,0,36.75705518816131,129.05336787150264
297,경북,경상북도 구미시 산동면 봉산리 165,임봉초,0,36.14038418243248,128.4593506648526
298,경북,경상북도 포항시 북구 죽장면 합덕리 276,죽장초죽북분교장,0,36.20253108469226,129.09600984352466
299,경북,경상북도 김천시 아포읍 지리 376,지동초,0,36.18500711577556,128.2522420763867
300,경북,경상북도 경주시 천북면 물천리 624-1,천북초물천분교장,0,35.86893398248732,129.28201019204278
301,경북,경상북도 포항시 북구 청하면 소동리 768-1,청하초청하남부분교장,0,36.16839283531971,129.34246351921334
302,경북,경상북도 안동시 풍천면 가곡리 595,풍서초,0,36.5723482218397,128.52229736532706
303,경북,경상북도 안동시 풍천면 구담리 541-1,풍천초,0,36.544683051609,128.46174693041556
304,경북,경상북도 구미시 해평면 낙산리 598-1,해평초일선분교장,0,36.25360778149234,128.35548867702562
305,경북,경상북도 구미시 해평면 산양리 57-1,해평초향산분교장,0,36.226142093900286,128.37126125141148
306,경북,경상북도 성주군 금수면 무학리 1410,가천초무학분교장,0,35.92598888657253,128.09715729880793
307,경북,경상북도 고령군 개진면 생리 251,개진초영동분교장,0,35.717467859197804,128.41299191767163
308,경북,경상북도 경주시 건천읍 화천리 1328-1,경주초화천분교장,0,35.79693767058245,129.13796871583298
309,경북,경상북도 김천시 감문면 태촌리 785,곡송초,0,36.203463970458344,128.21998913984785
310,경북,경상북도 포항시 남구 구룡포읍 구평리 736-1,구룡포초구남분교장,0,35.949563798734594,129.53684174858824
311,경북,경상북도 고령군 다산면 노곡리 710-1,다산초노곡분교장,0,35.84178720435332,128.41331232825326
312,경북,경상북도 김천시 대신길 103 대신초등학교,대신초,0,36.154469006205595,128.19584577623257
313,경북,경상북도 성주군 선남면 용신리 933-1,도원초선남동부분교장,0,35.93327006751465,128.39293759367823
314,경북,경상북도 청도군 금천면 동곡리 905,동곡초,0,35.69008040755413,128.89451092525314
315,경북,경상북도 봉화군 명호면 북곡리 1309,명호초북곡분교장,0,36.806136371138045,128.88785651200195
316,경북,경상북도 봉화군 물야면 북지리 727,물야초북지분교장,0,36.93407063412441,128.7396294949825
317,경북,경상북도 봉화군 물야면 수식리 418-1,물야초수식분교장,0,36.93799487514248,128.6785660213311
318,경북,경상북도 울진군 금강송면 왕피리 594,삼근초왕피분교장,0,36.88267194228109,129.27697708636944
319,경북,경상북도 경주시 안강읍 육통리 543-3,안강북부초,0,36.0214615668845,129.22567530061065
320,경북,경상북도 경주시 양남면 상계리 57-2,양남초상계분교장,0,35.66905718596927,129.42470883443193
321,경북,경상북도 김천시 양천동 1301-2,양천초,0,36.09286727308344,128.106032191125
322,경북,경상북도 영덕군 영덕읍 매정리 88,영덕야성초매정분교장,0,36.44558640360793,129.4220337967111
323,경북,경상북도 영덕군 영덕읍 창포리 550,영덕야성초창포분교장,0,36.409346529540954,129.4279296063563
324,경북,경상북도 상주시 외남면 신촌리 467,외남초삼남분교장,0,36.345461027104996,128.07985701904497
325,경북,경상북도 의성군 안사면 월소리 750-1,이두초쌍호분교장,0,36.49725806035956,128.42329351602646
326,경북,경상북도 영천시 임고면 수성리 901-2,임고초수성분교장,0,36.05699749293562,129.11014531434253
327,경북,경상북도 성주군 수륜면 오천리 280,지사초,0,35.815640864506726,128.2316286936783
328,경남,경상남도 함안군 법수면 강주리 408-2,관동초,0,35.32241914818858,128.33028231791138
329,경남,경상남도 밀양시 산외면 금곡리 83-2,단산초,0,35.51084252380272,128.84090093158872
330,경남,경상남도 밀양시 하남읍 백산리 1257-4,백산초,0,35.370595093980405,128.745787070182
331,경남,경상남도 창원시 의창구 북면 동전리 141-3,북면초,0,35.31751186631114,128.59849861911758
332,경남,경상남도 통영시 사량면 돈지리 223-1,사량초내지분교장,0,34.85535565901162,128.18290499857864
333,경남,경상남도 통영시 사량면 읍덕리 366-1,사량초읍덕분교장,0,34.82555997428572,128.21157969592244
334,경남,경상남도 밀양시 상동면 금산리 876-3,상동초,0,35.555008281343795,128.76312098703968
335,경남,경상남도 사천시 용현면 통양리 108,선진초,0,35.0382456834022,128.05462240964735
336,경남,경상남도 남해군 설천면 덕신리 1259-3,설천초덕신분교장,0,34.932406481748565,127.87347365115288
337,경남,경상남도 김해시 응달동 154-21,수남초,0,35.177820576015804,128.83740727643007
338,경남,경상남도 밀양시 하남읍 대사리 242-2,수산초하남대사분교장,0,35.393477887595346,128.73353578151796
339,경남,경상남도 거제시 둔덕면 술역리 808-1,숭덕초화도분교장,0,34.83029252492697,128.469776433363
340,경남,경상남도 김해시 한림면 신천리 662,신천초,0,35.27796076191291,128.82958723416286
341,경남,경상남도 창원시 진해구 성내동 399-4,웅천초,0,35.11326162313807,128.75024218606256
342,경남,경상남도 통영시 용남면 지도리 250-1,원평초지도분교장,0,34.9143373386382,128.4724155191308
343,경남,경상남도 진주시 장재동 582,장재초,0,35.217704383996605,128.10235056503626
344,경남,경상남도 거창군 신원면 중유리 275-1,중유초,0,35.55699274145706,127.90298417008071
345,경남,경상남도 함안군 칠북면 검단리 980,칠북초,0,35.3479957699463,128.52761842020266
346,경남,경상남도 김해시 한림면 가산리 191-2,한림초가산분교장,0,35.331698204841445,128.76030207378852
347,경남,경상남도 통영시 한산면 창좌리 726-1,한산초,0,34.78083953520077,128.50108939874823
348,경남,경상남도 진주시 대평면 대평리 509,한평초,0,35.234767795877296,127.95971679118132
349,경남,경상남도 합천군 가야면 사촌리 166,가산초,0,35.74972650876784,128.12766469310452
350,경남,경상남도 사천시 마도동 6,대방초마도분교장,0,34.93520307620815,128.03264174249944
351,경남,경상남도 진주시 집현면 덕오리 725-2,덕오초,0,35.248477747568295,128.12549677788246
352,경남,경상남도 통영시 사량면 돈지리 675,사량초돈지분교장,0,34.839593187847804,128.18103522977654
353,경남,경상남도 통영시 사량면 양지리 418-2,사량초양지분교장,0,34.81305071632861,128.233690977599
354,경남,경상남도 진주시 옥봉동 700-1,수정초,0,35.193567122623904,128.0944616587602
355,경남,경상남도 합천군 가야면 매안리 392,숭산초,0,35.732429632714684,128.10717159725309
356,경남,경상남도 양산시 어곡동 150,어곡초,0,35.37485487410537,129.02827997736696
357,경남,경상남도 창원시 진해구 명동 338,웅천초명동분교장,0,35.09714367140298,128.72081684105459
358,경남,경상남도 통영시 욕지면 노대리 66-3,원량초노대분교장,0,34.671333783907464,128.2453716216782
359,경남,경상남도 통영시 욕지면 두미리 122-1,원량초두남분교장,0,34.69972847016798,128.19916481340294
360,경남,경상남도 통영시 욕지면 동항리 384-1,원량초옥동분교장,0,34.624918458605194,128.27389124916334
361,경남,경상남도 김해시 주촌면 선지리 248-1,주동초,0,35.244962392834225,128.83651317574385
362,경남,경상남도 김해시 주촌면 내삼리 652-1,주촌초,0,35.23573298815372,128.82156887100055
363,경남,경상남도 밀양시 초동면 성만리 624-2,초동중,0,35.40896899141953,128.69585998814378
364,경남,경상남도 고성군 하일면 춘암리 401-2,하일초장춘분교장,0,34.912496162278764,128.1788703477438
365,경남,경상남도 통영시 한산면 비진리 75-3,한산초비진분교장,0,34.730515052240946,128.46337855655418
366,경남,경상남도 통영시 한산면 용호리 459-1,한산초용호분교장,0,34.74972046578434,128.49453321307794
367,경남,경상남도 합천군 가야면 치인리 산16-1,해인초,0,35.78367755164631,128.08209843137223
368,제주,제주특별자치도 서귀포시 안덕면 동광리 976,서광초동광분교장,0,33.30617994656159,126.33725708095663
369,경기,경기 연천군 미산면유촌리 625,연천왕산초등학교마전분교장,0,38.04930170036382,126.98854325568071
370,강원,강원 태백시 백산동89번지,철암초등학교백산분교장,0,37.13777126648945,129.03488504677009
371,강원,강원 삼척시 원덕읍 노곡리142-2,호산초등학교노실분교장,0,37.202155988778564,129.34164568728642
372,강원,강원 평창군 진부면 신기리190번지,거문초등학교신기분교장,0,37.59565352587307,128.56263661963965
373,강원,강원 정선군 동면 백전리101-2,백전초등학교용소분교장,0,37.248821056301864,128.89725208154405
374,강원,강원 정선군 북평면 숙암리546,북평초등학교숙암분교장,0,37.47692052201551,128.612761816004
375,강원,강원 철원군 근남면 마현리1270,마현초등학교,0,38.269689532365135,127.5438958371552
376,충북,충북 청원군 오창읍 가좌리129,오창초등학교가좌분교장,0,36.73588298590473,127.36665081412008
377,충북,충북 청원군 오창읍 유리394,오창초등학교유리분교장,0,36.75454545316021,127.47598322174039
378,충남,충남 공주시 정안면 월산리393,월산초등학교,0,36.62738894660172,127.083426378498
379,충남,충남 서산시 팔봉면 진장리806-5,고성초등학교,0,36.7753418431216,126.356059024714
380,충남,충남 부여군 임천면 칠산리219-1,칠산초등학교,0,36.157609088567625,126.91469589764593
381,전북,전북 군산시 옥구읍 상평리471,상평초등학교,0,35.92931417617349,126.70826270322657
382,전북,전북 무주군 적상면 삼유리572,삼방초등학교,0,35.922834414357816,127.61347791239277
383,전북,전북 고창군 상하면 석남리688,석남초등학교,0,35.4403539240101,126.46112231190013
384,전남,전남 나주시 토계동318,나주초등학교이화분교장,0,35.020123023137714,126.7294543601192
385,전남,전남 나주시 금천면 동악리566,금천남초등학교,0,35.00732244676322,126.76911511951558
386,전남,전남 고흥군 대서면 안남리625,대서초등학교안남분교장,0,34.74929676757653,127.27202719078232
387,전남,전남 화순군 한천면 반곡리305,사평초등학교반곡분교장,0,34.9751764161555,127.0702529501595
388,전남,전남 해남군 북일면 내동리645,북일초등학교산동분교장,0,34.447253236881444,126.70916428509676
389,전남,전남 해남군 황산면 한자리88,황산초등학교한자분교장,0,34.556206162169055,126.44793357285737
390,전남,전남 영암군 도포면 수산리282-4,도포초등학교수산분교장,0,34.83678569516675,126.66766096947599
391,전남,전남 함평군 대동면 금산리422-7,대동향교초등학교대신분교장,0,35.12363010977755,126.49442165581556
392,전남,전남 영광군 염산면 신성리255,염산초등학교신성분교장,0,35.24055717188043,126.36187357407995
393,전남,전남 장성군 황룡면 아곡리46,월평초등학교황룡분교장,0,35.312213302878135,126.74299146356572
394,전남,전남 완도군 소안면 횡간리151,소안초등학교횡간분교장,0,34.239592989454344,126.61161841104116
395,전남,전남 완도군 소안면 진산리847,소안초등학교진산분교장,0,34.13672587375959,126.64275403005622
396,전남,전남 진도군 지산면 길은리494-1,지산초등학교길은분교장,0,34.46981078941777,126.18794168295601
397,전남,전남 신안군 도초면 만년리1314,동도초등학교,0,34.71153587743497,125.97412390077488
398,전남,전남 신안군 신의면 하태동리438-4,신의초등학교신의남분교장,0,34.55681803028077,126.06429236251043
399,전남,전남 신안군 장산면 팽진리921,장산초등학교장산동분교장,0,34.636247836544584,126.17389018771752
400,경북,경북 포항시 북구 죽장면 합덕리276,죽장초등학교죽북분교장,0,36.20253108469226,129.09600984352466
401,경북,경북 김천시 농소면 봉곡리1214,농소초등학교봉곡분교장,0,36.071902797752315,128.17750894590287
402,경북,경북 김천시 조마면 대방리539번지,대방초등학교,0,36.00174547244193,128.13139317367458
403,경북,경북 안동시 북후면 연곡리414-1,북후초등학교연곡분교장,0,36.66413144532756,128.73130566145946
404,경북,경북 구미시 해평면 낙산리588-1,해평초등학교일선분교장,0,36.253166346361155,128.35309125717205
405,경북,경북 영천시 금호읍 원기리277번지,창산초등학교,0,35.90777043962586,128.88118211612058
406,경북,경북 문경시 영순면 말응리524번지,영순초등학교영창분교장,0,36.54499837202114,128.24607519262864
407,경북,경북 의성군 비안면 서부리35번지,이두초등학교비안분교장,0,36.32528649094751,128.49507169824506
408,경북,경북 청도군 이서면 양원리129-5,칠곡초등학교,0,35.694028515098466,128.68657323889363
409,경북,경북 고령군 개진면 생리251번지,개진초등학교영동분교장,0,35.717467859197804,128.41299191767163
410,경북,경북 고령군 다산면 벌지리63번지,다산초등학교벌지분교장,0,35.81805662335339,128.40755400749822
411,경북,경북 고령군 개진면 직리804-2,직동초등학교,0,35.72272766220064,128.30773863485794
412,경북,경북 예천군 보문면 옥천리242번지,감천초등학교옥천분교장,0,36.7095152040755,128.55553252030836
413,경북,경북 예천군 보문면 수계리658-1,예천동부초등학교보문분교장,0,36.688766488012355,128.54749324923327
414,경남,경남 진주시 내동면 삼계리산267-9번지,내동초등학교신광분교장,0,35.13950588854781,128.03001895030204
415,경남,경남 통영시 욕지면 동항리384-1번지,원량초등학교옥동분교장,0,34.624918458605194,128.27389124916334
416,강원,강원 태백시 하사미동163-1,미동초등학교하사미분교장,0,37.304227277152684,128.99129333540006
417,강원,강원 태백시 하사미동163-1,미동초등학교하사미분교장,1,37.304227277152684,128.99129333540006
418,강원,강원 태백시 하사미동163-1,미동초등학교하사미분교장,0,37.304227277152684,128.99129333540006
419,강원,강원 태백시 하사미동163-1,미동초등학교하사미분교장,1,37.304227277152684,128.99129333540006
420,강원,강원 홍천군 내면 자운리413번지,창촌초등학교운두분교장,0,37.73044706715037,128.40236747453042
421,강원,강원 홍천군 내면 자운리413번지,창촌초등학교운두분교장,1,37.73044706715037,128.40236747453042
422,강원,강원 홍천군 내면 자운리413번지,창촌초등학교운두분교장,0,37.73044706715037,128.40236747453042
423,강원,강원 홍천군 내면 자운리413번지,창촌초등학교운두분교장,1,37.73044706715037,128.40236747453042
424,강원,강원 횡성군 횡성읍 정암리454,덕고초등학교,0,37.47333666163264,128.0217808558231
425,강원,강원 횡성군 횡성읍 정암리454,덕고초등학교,1,37.47333666163264,128.0217808558231
426,강원,강원 횡성군 횡성읍 정암리454,덕고초등학교,0,37.47333666163264,128.0217808558231
427,강원,강원 횡성군 횡성읍 정암리454,덕고초등학교,1,37.47333666163264,128.0217808558231
428,강원,강원 횡성군 공근면 부창리209번지,상창초등학교,0,37.595071810192685,128.00196147713993
429,강원,강원 횡성군 공근면 부창리209번지,상창초등학교,1,37.595071810192685,128.00196147713993
430,강원,강원 횡성군 공근면 부창리209번지,상창초등학교,0,37.595071810192685,128.00196147713993
431,강원,강원 횡성군 공근면 부창리209번지,상창초등학교,1,37.595071810192685,128.00196147713993
432,강원,강원 정선군 임계면 도전리734-2,임계초등학교도전분교장,0,37.504234700291256,128.90802301813616
433,강원,강원 정선군 임계면 도전리734-2,임계초등학교도전분교장,1,37.504234700291256,128.90802301813616
434,강원,강원 정선군 임계면 도전리734-2,임계초등학교도전분교장,0,37.504234700291256,128.90802301813616
435,강원,강원 정선군 임계면 도전리734-2,임계초등학교도전분교장,1,37.504234700291256,128.90802301813616
436,강원,강원 정선군 임계면 골지리423-1,임계초등학교문래분교장,0,37.414194098895024,128.85363683008114
437,강원,강원 정선군 임계면 골지리423-1,임계초등학교문래분교장,1,37.414194098895024,128.85363683008114
438,강원,강원 정선군 임계면 골지리423-1,임계초등학교문래분교장,0,37.414194098895024,128.85363683008114
439,강원,강원 정선군 임계면 골지리423-1,임계초등학교문래분교장,1,37.414194098895024,128.85363683008114
440,강원,강원 고성군 현내면 죽정리1리 372번지,죽정초등학교,0,38.4753624172165,128.4339109893626
441,강원,강원 고성군 현내면 죽정리1리 372번지,죽정초등학교,1,38.4753624172165,128.4339109893626
442,강원,강원 고성군 현내면 죽정리1리 372번지,죽정초등학교,0,38.4753624172165,128.4339109893626
443,강원,강원 고성군 현내면 죽정리1리 372번지,죽정초등학교,1,38.4753624172165,128.4339109893626
444,충북,충북 충주시 엄정면 목계리111,엄정초등학교목계분교장,0,37.081303766791116,127.8903279738533
445,충북,충북 충주시 엄정면 목계리111,엄정초등학교목계분교장,1,37.081303766791116,127.8903279738533
446,충북,충북 충주시 엄정면 목계리111,엄정초등학교목계분교장,0,37.081303766791116,127.8903279738533
447,충북,충북 충주시 엄정면 목계리111,엄정초등학교목계분교장,1,37.081303766791116,127.8903279738533
448,충북,충북 옥천군 청성면 도장리496번지,청성초등학교능월분교장,0,36.37356572820382,127.73364387566929
449,충북,충북 괴산군 칠성면 외사리152,칠성초등학교외사분교,0,36.769776311629684,127.8399216694913
450,충북,충북 괴산군 칠성면 외사리152,칠성초등학교외사분교,1,36.769776311629684,127.8399216694913
451,충북,충북 괴산군 칠성면 외사리152,칠성초등학교외사분교,0,36.769776311629684,127.8399216694913
452,충북,충북 괴산군 칠성면 외사리152,칠성초등학교외사분교,1,36.769776311629684,127.8399216694913
453,충북,충북 단양군 영춘면 의풍리663번지,영춘초등학교의풍분교,0,37.06393078036118,128.6159459709889
454,충남,충남 서산시 인지면 모월리311-2,인지초등학교인정분교장,0,36.723342564066364,126.42240741312305
455,충남,충남 서산시 인지면 모월리311-2,인지초등학교인정분교장,1,36.723342564066364,126.42240741312305
456,충남,충남 서산시 인지면 모월리311-2,인지초등학교인정분교장,0,36.723342564066364,126.42240741312305
457,충남,충남 서산시 인지면 모월리311-2,인지초등학교인정분교장,1,36.723342564066364,126.42240741312305
458,충남,충남 부여군 홍산면 조현리379-1,장수초등학교,0,36.22591836795653,126.78617640068904
459,충남,충남 부여군 홍산면 조현리379-1,장수초등학교,1,36.22591836795653,126.78617640068904
460,충남,충남 부여군 홍산면 조현리379-1,장수초등학교,0,36.22591836795653,126.78617640068904
461,충남,충남 부여군 홍산면 조현리379-1,장수초등학교,1,36.22591836795653,126.78617640068904
462,전북,전북 익산시 여산면 원수리465-4,여산남초등학교,0,36.04087930495065,127.09534700678677
463,전북,전북 익산시 여산면 원수리465-4,여산남초등학교,1,36.04087930495065,127.09534700678677
464,전북,전북 익산시 여산면 원수리465-4,여산남초등학교,0,36.04087930495065,127.09534700678677
465,전북,전북 익산시 여산면 원수리465-4,여산남초등학교,1,36.04087930495065,127.09534700678677
466,전북,전북 익산시 여산면 두여리1184-2,여산서초등학교,0,36.07020605522499,127.06077014414144
467,전북,전북 익산시 여산면 두여리1184-2,여산서초등학교,1,36.07020605522499,127.06077014414144
468,전북,전북 익산시 여산면 두여리1184-2,여산서초등학교,0,36.07020605522499,127.06077014414144
469,전북,전북 익산시 여산면 두여리1184-2,여산서초등학교,1,36.07020605522499,127.06077014414144
470,전북,전북 진안군 진안읍 연장리998번지,연장초등학교,0,35.770619271207345,127.37688109194865
471,전북,전북 진안군 진안읍 연장리998번지,연장초등학교,1,35.770619271207345,127.37688109194865
472,전북,전북 진안군 진안읍 연장리998번지,연장초등학교,0,35.770619271207345,127.37688109194865
473,전북,전북 진안군 진안읍 연장리998번지,연장초등학교,1,35.770619271207345,127.37688109194865
474,전남,전남 목포시 옥암동240-1,목포옥남초등학교,0,34.81794853699821,126.45278620041375
475,전남,전남 목포시 옥암동240-1,목포옥남초등학교,1,34.81794853699821,126.45278620041375
476,전남,전남 목포시 옥암동240-1,목포옥남초등학교,0,34.81794853699821,126.45278620041375
477,전남,전남 목포시 옥암동240-1,목포옥남초등학교,1,34.81794853699821,126.45278620041375
478,전남,전남 여수시 신덕동6,상암초등학교신덕분교장,0,34.82232877334465,127.76809992517387
479,전남,전남 여수시 신덕동6,상암초등학교신덕분교장,1,34.82232877334465,127.76809992517387
480,전남,전남 여수시 신덕동6,상암초등학교신덕분교장,0,34.82232877334465,127.76809992517387
481,전남,전남 여수시 신덕동6,상암초등학교신덕분교장,1,34.82232877334465,127.76809992517387
482,전남,전남 여수시 삼산면 초도리산2457,초도초등학교진막분교장,0,34.22947319428596,127.23410248057469
483,전남,전남 여수시 삼산면 초도리산2457,초도초등학교진막분교장,1,34.22947319428596,127.23410248057469
484,전남,전남 여수시 삼산면 초도리산2457,초도초등학교진막분교장,0,34.22947319428596,127.23410248057469
485,전남,전남 여수시 삼산면 초도리산2457,초도초등학교진막분교장,1,34.22947319428596,127.23410248057469
486,전남,전남 순천시 주암면 어왕리1,주암초등학교어왕분교장,0,35.097519987793945,127.23704367903423
487,전남,전남 순천시 주암면 어왕리1,주암초등학교어왕분교장,1,35.097519987793945,127.23704367903423
488,전남,전남 순천시 주암면 어왕리1,주암초등학교어왕분교장,0,35.097519987793945,127.23704367903423
489,전남,전남 순천시 주암면 어왕리1,주암초등학교어왕분교장,1,35.097519987793945,127.23704367903423
490,전남,전남 순천시 별량면 마산리243-1,별량초등학교마산분교장,0,34.84511304671947,127.45145765003632
491,전남,전남 순천시 별량면 마산리243-1,별량초등학교마산분교장,1,34.84511304671947,127.45145765003632
492,전남,전남 순천시 별량면 마산리243-1,별량초등학교마산분교장,0,34.84511304671947,127.45145765003632
493,전남,전남 순천시 별량면 마산리243-1,별량초등학교마산분교장,1,34.84511304671947,127.45145765003632
494,전남,전남 나주시 산포면 신도리181-1,산포초등학교신도분교장,0,35.00619239737261,126.8052658124648
495,전남,전남 나주시 산포면 신도리181-1,산포초등학교신도분교장,1,35.00619239737261,126.8052658124648
496,전남,전남 나주시 산포면 신도리181-1,산포초등학교신도분교장,0,35.00619239737261,126.8052658124648
497,전남,전남 나주시 산포면 신도리181-1,산포초등학교신도분교장,1,35.00619239737261,126.8052658124648
498,전남,전남 고흥군 금산면 어전리1240,금산제일초등학교,0,34.44680986752641,127.11834822350148
499,전남,전남 고흥군 금산면 어전리1240,금산제일초등학교,1,34.44680986752641,127.11834822350148
500,전남,전남 고흥군 금산면 어전리1240,금산제일초등학교,0,34.44680986752641,127.11834822350148
501,전남,전남 고흥군 금산면 어전리1240,금산제일초등학교,1,34.44680986752641,127.11834822350148
502,전남,전남 화순군 능주면 만수리129,능주북초등학교,0,35.01273923532058,126.95280584910681
503,전남,전남 화순군 능주면 만수리129,능주북초등학교,1,35.01273923532058,126.95280584910681
504,전남,전남 화순군 능주면 만수리129,능주북초등학교,0,35.01273923532058,126.95280584910681
505,전남,전남 화순군 능주면 만수리129,능주북초등학교,1,35.01273923532058,126.95280584910681
506,전남,전남 강진군 강진읍 학명리320-1,강진서초등학교,0,34.61372918151321,126.75513323217699
507,전남,전남 강진군 강진읍 학명리320-1,강진서초등학교,1,34.61372918151321,126.75513323217699
508,전남,전남 강진군 강진읍 학명리320-1,강진서초등학교,0,34.61372918151321,126.75513323217699
509,전남,전남 강진군 강진읍 학명리320-1,강진서초등학교,1,34.61372918151321,126.75513323217699
510,전남,전남 영암군 미암면 호포리83,미암서초등학교,0,34.698574003140216,126.54396110927088
511,전남,전남 영암군 미암면 호포리83,미암서초등학교,1,34.698574003140216,126.54396110927088
512,전남,전남 영암군 미암면 호포리83,미암서초등학교,0,34.698574003140216,126.54396110927088
513,전남,전남 영암군 미암면 호포리83,미암서초등학교,1,34.698574003140216,126.54396110927088
514,전남,전남 무안군 몽탄면 청용리401,몽탄남초등학교,0,34.89266923540416,126.5020414718145
515,전남,전남 무안군 몽탄면 청용리401,몽탄남초등학교,1,34.89266923540416,126.5020414718145
516,전남,전남 무안군 몽탄면 청용리401,몽탄남초등학교,0,34.89266923540416,126.5020414718145
517,전남,전남 무안군 몽탄면 청용리401,몽탄남초등학교,1,34.89266923540416,126.5020414718145
518,전남,전남 무안군 몽탄면 사창리720,몽탄북초등학교,0,34.9656382627007,126.51730649309064
519,전남,전남 무안군 몽탄면 사창리720,몽탄북초등학교,1,34.9656382627007,126.51730649309064
520,전남,전남 무안군 몽탄면 사창리720,몽탄북초등학교,0,34.9656382627007,126.51730649309064
521,전남,전남 무안군 몽탄면 사창리720,몽탄북초등학교,1,34.9656382627007,126.51730649309064
522,전남,전남 함평군 학교면 학교리585,학다리초등학교,0,35.01329883782059,126.53661151783365
523,전남,전남 함평군 학교면 학교리585,학다리초등학교,1,35.01329883782059,126.53661151783365
524,전남,전남 함평군 학교면 학교리585,학다리초등학교,0,35.01329883782059,126.53661151783365
525,전남,전남 함평군 학교면 학교리585,학다리초등학교,1,35.01329883782059,126.53661151783365
526,전남,전남 영광군 대마면 원흥리334-2,대마서초등학교,0,35.295409689908965,126.5585052251697
527,전남,전남 영광군 대마면 원흥리334-2,대마서초등학교,1,35.295409689908965,126.5585052251697
528,전남,전남 영광군 대마면 원흥리334-2,대마서초등학교,0,35.295409689908965,126.5585052251697
529,전남,전남 영광군 대마면 원흥리334-2,대마서초등학교,1,35.295409689908965,126.5585052251697
530,전남,전남 장성군 북하면 신성리71-1,약수초등학교북상분교장,0,35.42579879499295,126.84743999094836
531,전남,전남 장성군 북하면 신성리71-1,약수초등학교북상분교장,1,35.42579879499295,126.84743999094836
532,전남,전남 장성군 북하면 신성리71-1,약수초등학교북상분교장,0,35.42579879499295,126.84743999094836
533,전남,전남 장성군 북하면 신성리71-1,약수초등학교북상분교장,1,35.42579879499295,126.84743999094836
534,전남,전남 완도군 노화읍 구석리925,노화동초등학교,0,34.20512119631845,126.6029878040868
535,전남,전남 완도군 노화읍 구석리925,노화동초등학교,1,34.20512119631845,126.6029878040868
536,전남,전남 완도군 노화읍 구석리925,노화동초등학교,0,34.20512119631845,126.6029878040868
537,전남,전남 완도군 노화읍 구석리925,노화동초등학교,1,34.20512119631845,126.6029878040868
538,전남,전남 완도군 생일면 봉선리516,생영초등학교봉선분교장,0,34.311940979908265,126.98857524242592
539,전남,전남 완도군 금당면 차우리1555,금당초등학교비견분교장,0,34.42491322920967,127.08070733178955
540,전남,전남 완도군 금당면 차우리1555,금당초등학교비견분교장,1,34.42491322920967,127.08070733178955
541,전남,전남 완도군 금당면 차우리1555,금당초등학교비견분교장,0,34.42491322920967,127.08070733178955
542,전남,전남 완도군 금당면 차우리1555,금당초등학교비견분교장,1,34.42491322920967,127.08070733178955
543,전남,전남 진도군 지산면 가치리904-3,지산서초등학교,0,34.43444388463315,126.12242342349954
544,전남,전남 진도군 지산면 가치리904-3,지산서초등학교,1,34.43444388463315,126.12242342349954
545,전남,전남 진도군 지산면 가치리904-3,지산서초등학교,0,34.43444388463315,126.12242342349954
546,전남,전남 진도군 지산면 가치리904-3,지산서초등학교,1,34.43444388463315,126.12242342349954
547,전남,전남 진도군 임회면 백동리633번지,석교초등학교용등분교장,0,34.37983619824453,126.19059000433376
548,전남,전남 신안군 비금면 죽림리832,비금초등학교비금서분교장,0,34.73912256425869,125.9131425837397
549,전남,전남 신안군 비금면 죽림리832,비금초등학교비금서분교장,1,34.73912256425869,125.9131425837397
550,전남,전남 신안군 비금면 죽림리832,비금초등학교비금서분교장,0,34.73912256425869,125.9131425837397
551,전남,전남 신안군 비금면 죽림리832,비금초등학교비금서분교장,1,34.73912256425869,125.9131425837397
552,전남,전남 신안군 안좌면 대리756,안창초등학교,0,34.715689181324336,126.16954659582072
553,전남,전남 신안군 안좌면 대리756,안창초등학교,1,34.715689181324336,126.16954659582072
554,전남,전남 신안군 안좌면 대리756,안창초등학교,0,34.715689181324336,126.16954659582072
555,전남,전남 신안군 안좌면 대리756,안창초등학교,1,34.715689181324336,126.16954659582072
556,전남,전남 신안군 압해면 가란리97,압해동초등학교가란분교장,0,34.871100001564415,126.36766818586985
557,전남,전남 신안군 압해면 가란리97,압해동초등학교가란분교장,1,34.871100001564415,126.36766818586985
558,전남,전남 신안군 압해면 가란리97,압해동초등학교가란분교장,0,34.871100001564415,126.36766818586985
559,전남,전남 신안군 압해면 가란리97,압해동초등학교가란분교장,1,34.871100001564415,126.36766818586985
560,경북,경북 경주시 강동면 왕신리669-1번지,강동초등학교왕신분교장,0,35.96740405612125,129.2911240465171
561,경북,경북 경주시 강동면 왕신리669-1번지,강동초등학교왕신분교장,1,35.96740405612125,129.2911240465171
562,경북,경북 경주시 강동면 왕신리669-1번지,강동초등학교왕신분교장,0,35.96740405612125,129.2911240465171
563,경북,경북 경주시 강동면 왕신리669-1번지,강동초등학교왕신분교장,1,35.96740405612125,129.2911240465171
564,경북,경북 김천시 구성면 송죽리111번지,구성초등학교과곡분교장,0,36.05888339361082,128.07862235916173
565,경북,경북 김천시 구성면 송죽리111번지,구성초등학교과곡분교장,1,36.05888339361082,128.07862235916173
566,경북,경북 김천시 구성면 송죽리111번지,구성초등학교과곡분교장,0,36.05888339361082,128.07862235916173
567,경북,경북 김천시 구성면 송죽리111번지,구성초등학교과곡분교장,1,36.05888339361082,128.07862235916173
568,경북,경북 안동시 도산면 서부리214-2,온혜초등학교예안분교장,0,36.70128664446808,128.81233488154854
569,경북,경북 안동시 도산면 서부리214-2,온혜초등학교예안분교장,1,36.70128664446808,128.81233488154854
570,경북,경북 안동시 도산면 서부리214-2,온혜초등학교예안분교장,0,36.70128664446808,128.81233488154854
571,경북,경북 안동시 도산면 서부리214-2,온혜초등학교예안분교장,1,36.70128664446808,128.81233488154854
572,경북,경북 안동시 일직면 망호리819,일직남부초등학교,0,36.46107735331224,128.66509333567652
573,경북,경북 안동시 일직면 망호리819,일직남부초등학교,1,36.46107735331224,128.66509333567652
574,경북,경북 안동시 일직면 망호리819,일직남부초등학교,0,36.46107735331224,128.66509333567652
575,경북,경북 안동시 일직면 망호리819,일직남부초등학교,1,36.46107735331224,128.66509333567652
576,경북,경북 상주시 모서면 정산리355-2,모서초등학교화산분교장,0,36.30698641302683,127.87233621518207
577,경북,경북 상주시 모서면 정산리355-2,모서초등학교화산분교장,1,36.30698641302683,127.87233621518207
578,경북,경북 상주시 모서면 정산리355-2,모서초등학교화산분교장,0,36.30698641302683,127.87233621518207
579,경북,경북 상주시 모서면 정산리355-2,모서초등학교화산분교장,1,36.30698641302683,127.87233621518207
580,경북,경북 문경시 산양면 과곡리594,산양초등학교금동분교장,0,36.636948723332615,128.2722997961241
581,경북,경북 문경시 산양면 과곡리594,산양초등학교금동분교장,1,36.636948723332615,128.2722997961241
582,경북,경북 문경시 산양면 과곡리594,산양초등학교금동분교장,0,36.636948723332615,128.2722997961241
583,경북,경북 문경시 산양면 과곡리594,산양초등학교금동분교장,1,36.636948723332615,128.2722997961241
584,경북,경북 문경시 호계면 견탄리500-5,신기초등학교대성분교장,0,36.64773266198424,128.15226215756468
585,경북,경북 문경시 호계면 견탄리500-5,신기초등학교대성분교장,1,36.64773266198424,128.15226215756468
586,경북,경북 문경시 호계면 견탄리500-5,신기초등학교대성분교장,0,36.64773266198424,128.15226215756468
587,경북,경북 문경시 호계면 견탄리500-5,신기초등학교대성분교장,1,36.64773266198424,128.15226215756468
588,경북,경북 경산시 진량읍 신상3리343-1,신상초등학교,0,35.877909439763435,128.83213941111052
589,경북,경북 경산시 진량읍 신상3리343-1,신상초등학교,1,35.877909439763435,128.83213941111052
590,경북,경북 경산시 진량읍 신상3리343-1,신상초등학교,0,35.877909439763435,128.83213941111052
591,경북,경북 경산시 진량읍 신상3리343-1,신상초등학교,1,35.877909439763435,128.83213941111052
592,경북,경북 영덕군 영해면 괴시리490번지 ,영해초등학교영해동부분교장,0,36.554996925284364,129.42633021622885
593,경북,경북 영덕군 영해면 괴시리490번지 ,영해초등학교영해동부분교장,1,36.554996925284364,129.42633021622885
594,경북,경북 영덕군 영해면 괴시리490번지 ,영해초등학교영해동부분교장,0,36.554996925284364,129.42633021622885
595,경북,경북 영덕군 영해면 괴시리490번지 ,영해초등학교영해동부분교장,1,36.554996925284364,129.42633021622885
596,경북,경북 예천군 감천면 덕율리143번지,감천초등학교덕율분교장,0,36.70467625282404,128.50524917210822
597,경북,경북 예천군 감천면 덕율리143번지,감천초등학교덕율분교장,1,36.70467625282404,128.50524917210822
598,경북,경북 예천군 감천면 덕율리143번지,감천초등학교덕율분교장,0,36.70467625282404,128.50524917210822
599,경북,경북 예천군 감천면 덕율리143번지,감천초등학교덕율분교장,1,36.70467625282404,128.50524917210822
600,경북,경북 예천군 호명면 월포리382,예천남부초등학교인포분교장,0,36.62023095433223,128.47902273294076
601,경북,경북 예천군 호명면 월포리382,예천남부초등학교인포분교장,1,36.62023095433223,128.47902273294076
602,경북,경북 예천군 호명면 월포리382,예천남부초등학교인포분교장,0,36.62023095433223,128.47902273294076
603,경북,경북 예천군 호명면 월포리382,예천남부초등학교인포분교장,1,36.62023095433223,128.47902273294076
604,경북,경북 예천군 용궁면 월오리690,용궁초등학교장평분교장,0,36.62720567689065,128.31157574847919
605,경북,경북 예천군 용궁면 월오리690,용궁초등학교장평분교장,1,36.62720567689065,128.31157574847919
606,경북,경북 예천군 용궁면 월오리690,용궁초등학교장평분교장,0,36.62720567689065,128.31157574847919
607,경북,경북 예천군 용궁면 월오리690,용궁초등학교장평분교장,1,36.62720567689065,128.31157574847919
608,경북,경북 봉화군 법전면 눌산리1134-2,춘양초등학교눌산분교장,0,36.89317343159157,128.9531593947313
609,경북,경북 봉화군 법전면 눌산리1134-2,춘양초등학교눌산분교장,1,36.89317343159157,128.9531593947313
610,경북,경북 봉화군 법전면 눌산리1134-2,춘양초등학교눌산분교장,0,36.89317343159157,128.9531593947313
611,경북,경북 봉화군 법전면 눌산리1134-2,춘양초등학교눌산분교장,1,36.89317343159157,128.9531593947313
612,경북,경북 울진군 원남면 오산리931,매화초등학교덕신분교장,0,36.89037581110543,129.41244101403512
613,경북,경북 울진군 원남면 오산리931,매화초등학교덕신분교장,1,36.89037581110543,129.41244101403512
614,경북,경북 울진군 원남면 오산리931,매화초등학교덕신분교장,0,36.89037581110543,129.41244101403512
615,경북,경북 울진군 원남면 오산리931,매화초등학교덕신분교장,1,36.89037581110543,129.41244101403512
616,경남,경남 진주시 금곡면 동례리886번지,금곡초등학교,0,35.11514071891273,128.18257633790893
617,경남,경남 진주시 집현면 덕오리725-2번지,덕오초등학교,0,35.248477747568295,128.12549677788246
618,경남,경남 진주시 집현면 덕오리725-2번지,덕오초등학교,1,35.248477747568295,128.12549677788246
619,경남,경남 진주시 집현면 덕오리725-2번지,덕오초등학교,0,35.248477747568295,128.12549677788246
620,경남,경남 진주시 집현면 덕오리725-2번지,덕오초등학교,1,35.248477747568295,128.12549677788246
621,경남,경남 진주시 지수면 승산리195-2번지,지수초등학교,0,35.234539167475255,128.27055159242278
622,경남,경남 김해시 한림면 가산리191-2번지,한림초등학교가산분교장,0,35.331698204841445,128.76030207378852
623,경남,경남 김해시 한림면 가산리191-2번지,한림초등학교가산분교장,1,35.331698204841445,128.76030207378852
624,경남,경남 김해시 한림면 가산리191-2번지,한림초등학교가산분교장,0,35.331698204841445,128.76030207378852
625,경남,경남 김해시 한림면 가산리191-2번지,한림초등학교가산분교장,1,35.331698204841445,128.76030207378852
626,경남,경남 하동군 금남면 대도리81,노량초등학교대도분교장,0,34.9326557680094,127.83073410799877
627,제주,제주 서귀포시 안덕면 동광리967,서광초등학교동광분교장,0,33.307435273746464,126.33866495431386
628,제주,제주 서귀포시 안덕면 동광리967,서광초등학교동광분교장,1,33.307435273746464,126.33866495431386
629,제주,제주 서귀포시 안덕면 동광리967,서광초등학교동광분교장,0,33.307435273746464,126.33866495431386
630,제주,제주 서귀포시 안덕면 동광리967,서광초등학교동광분교장,1,33.307435273746464,126.33866495431386
631,대전,대전광역시 유성구 봉산동839,대전보덕초등학교,0,36.43605726368735,127.3900522318252
632,경기,경기도 이천시 모가면 신갈리165-2,진가초등학교모가분교장,0,37.20210886443242,127.44867197048424
633,강원,강원도 강릉시 왕산면 고단리32-8,왕산초등학교고단분교장,0,37.521223075220256,128.8469713757795
634,강원,강원 삼척시 원덕읍 갈남리456-1,임원초등학교신남분교장,0,37.26587079551282,129.3237355350707
635,강원,강원 삼척시 원덕읍 갈남리456-1,임원초등학교신남분교장,1,37.26587079551282,129.3237355350707
636,강원,강원 삼척시 원덕읍 갈남리456-1,임원초등학교신남분교장,0,37.26587079551282,129.3237355350707
637,강원,강원 삼척시 원덕읍 갈남리456-1,임원초등학교신남분교장,1,37.26587079551282,129.3237355350707
638,강원,강원 정선군 남면 낙동리613,남선초등학교낙동분교장,0,37.319891285931284,128.6806798828027
639,강원,강원 정선군 남면 낙동리613,남선초등학교낙동분교장,1,37.319891285931284,128.6806798828027
640,강원,강원 정선군 남면 낙동리613,남선초등학교낙동분교장,0,37.319891285931284,128.6806798828027
641,강원,강원 정선군 남면 낙동리613,남선초등학교낙동분교장,1,37.319891285931284,128.6806798828027
642,충남,충청남도 연기군 남면 양화리439-5,연세초등학교,0,36.50368884646068,127.2865283045018
643,충남,충청남도 부여군 장암면 장하리691-1,남산초등학교,0,36.230578047933456,126.94612710267212
644,충남,충청남도 홍성군 결성면 용호리2-3,용호초등학교,0,36.578743279385314,126.55865751004379
645,전북,전라북도 정읍시 감곡면 용곽리용곽리 256,용곽초등학교,0,35.72969956597888,126.8884364185046
646,전북,전라북도 완주군 고산면 소향리318-1,고산동초등학교,0,35.98852909711597,127.25701943597956
647,전북,전라북도 부안군 보안면 하입석리573-2,보안초등학교,0,35.621821540196514,126.68972211749715
648,전남,전라남도 순천시 상사면 쌍지리250,상사초등학교쌍지분교장,0,34.93271820529732,127.41481076107142
649,전남,전라남도 나주시 세지면내정리 6-3,세지북초등학교,0,34.95081399493955,126.73769600964165
650,전남,전라남도 나주시 문평면옥당리 1119,문평남초등학교,0,35.02980964600811,126.61088941524878
651,전남,전라남도 무안군 일로읍 죽산리22,일로초등학교죽산분교장,0,34.8160337032697,126.51026316118588
652,전남,전라남도 함평군 학교면사거리 172,영창초등학교,0,35.031728279675676,126.53520565846488
653,전남,전라남도 영광군 홍농읍 가곡리243,홍농초등학교동명분교장,0,35.401959515838215,126.47285295949594
654,전남,전남 신안군 증도면병풍리2구 기점도 796번지,증도초등학교기점분교장,0,34.971846354999,126.21415601674455
655,전남,전라남도 신안군 도초면 우이도리1395번지,도초초등학교서리분교장,0,34.6109046939913,125.87036583645128
656,경북,경상북도 경주시 양북면 송전리94,양북초등학교송전분교장,0,35.76563306574574,129.4271472133531
657,경북,경북 경주시 탑동676-2번지,오릉초등학교,0,35.819907257853444,129.21381072474864
658,경북,경북 경주시 탑동676-2번지,오릉초등학교,1,35.819907257853444,129.21381072474864
659,경북,경북 경주시 탑동676-2번지,오릉초등학교,0,35.819907257853444,129.21381072474864
660,경북,경북 경주시 탑동676-2번지,오릉초등학교,1,35.819907257853444,129.21381072474864
661,경북,경상북도 영주시 부석면 남대리354,부석초등학교남대분교장,0,37.04639614029636,128.65526945670615
662,경북,경상북도 문경시 마성면 정리25-3,동성초등학교마성분교장,0,36.68781702253739,128.10736843328525
663,경북,경북 의성군 금성면 제오리904-1,상천초등학교,0,36.285480799102615,128.70428829307343
664,경북,경북 의성군 금성면 제오리904-1,상천초등학교,1,36.285480799102615,128.70428829307343
665,경북,경북 의성군 금성면 제오리904-1,상천초등학교,0,36.285480799102615,128.70428829307343
666,경북,경북 의성군 금성면 제오리904-1,상천초등학교,1,36.285480799102615,128.70428829307343
667,경남,경상남도 통영시 한산면 하소리430,한산초등학교하소분교장,0,34.75778913422208,128.48981662187168
668,경남,경상남도 거제시 둔덕면 술역리816,숭덕초등학교화도분교장,0,34.830486254217995,128.46955689286816
669,제주,제주특별자치도 제주시 조천읍 신흥리94,조천초등학교신흥분교장,0,33.548096573914215,126.65360251703696
670,부산,부산광역시 강서구 눌차동587번지 눌차초등학교,눌차초등학교,0,35.068734026959845,128.84102667639945
671,부산,부산광역시 강서구 눌차동587번지 눌차초등학교,눌차초등학교,1,35.068734026959845,128.84102667639945
672,부산,부산광역시 강서구 눌차동587번지 눌차초등학교,눌차초등학교,0,35.068734026959845,128.84102667639945
673,부산,부산광역시 강서구 눌차동587번지 눌차초등학교,눌차초등학교,1,35.068734026959845,128.84102667639945
674,부산,부산광역시 강서구 성북동   812-1천가초등학교천성분교장,천가초등학교천성분교장,0,35.05584748365415,128.82977745246004
675,부산,부산광역시 강서구 성북동   812-1천가초등학교천성분교장,천가초등학교천성분교장,1,35.05584748365415,128.82977745246004
676,부산,부산광역시 강서구 성북동   812-1천가초등학교천성분교장,천가초등학교천성분교장,0,35.05584748365415,128.82977745246004
677,부산,부산광역시 강서구 성북동   812-1천가초등학교천성분교장,천가초등학교천성분교장,1,35.05584748365415,128.82977745246004
678,경기,경기 양평군 지평면일신리 674번지,지평초등학교일신분교장,0,37.43392097578844,127.68664571218835
679,경기,경기 양평군 지평면일신리 674번지,지평초등학교일신분교장,1,37.43392097578844,127.68664571218835
680,경기,경기 양평군 지평면일신리 674번지,지평초등학교일신분교장,0,37.43392097578844,127.68664571218835
681,경기,경기 양평군 지평면일신리 674번지,지평초등학교일신분교장,1,37.43392097578844,127.68664571218835
682,경기,경기도 고양시 일산동구 장항동580번지,백마초등학교장항분교장,0,37.639249041329094,126.76828280703607
683,경기,경기도 고양시 일산동구 장항동580번지,백마초등학교장항분교장,1,37.639249041329094,126.76828280703607
684,경기,경기도 고양시 일산동구 장항동580번지,백마초등학교장항분교장,0,37.639249041329094,126.76828280703607
685,경기,경기도 고양시 일산동구 장항동580번지,백마초등학교장항분교장,1,37.639249041329094,126.76828280703607
686,강원,강원 강릉시 옥계면 남양리524-9,옥계초등학교남양분교장,0,37.57991160637521,129.03106530474378
687,강원,강원 강릉시 옥계면 남양리524-9,옥계초등학교남양분교장,1,37.57991160637521,129.03106530474378
688,강원,강원 강릉시 옥계면 남양리524-9,옥계초등학교남양분교장,0,37.57991160637521,129.03106530474378
689,강원,강원 강릉시 옥계면 남양리524-9,옥계초등학교남양분교장,1,37.57991160637521,129.03106530474378
690,강원,강원도 삼척시 하장면 갈전리365,하장초등학교갈전분교장,0,37.382976390210274,128.8940935582405
691,강원,강원도 삼척시 하장면 갈전리365,하장초등학교갈전분교장,1,37.382976390210274,128.8940935582405
692,강원,강원도 삼척시 하장면 갈전리365,하장초등학교갈전분교장,0,37.382976390210274,128.8940935582405
693,강원,강원도 삼척시 하장면 갈전리365,하장초등학교갈전분교장,1,37.382976390210274,128.8940935582405
694,강원,강원도 횡성군 강림면 부곡2리617 번지,강림초등학교부곡분교장,0,37.353498818051754,128.10477980908033
695,강원,강원도 횡성군 강림면 부곡2리617 번지,강림초등학교부곡분교장,1,37.353498818051754,128.10477980908033
696,강원,강원도 횡성군 강림면 부곡2리617 번지,강림초등학교부곡분교장,0,37.353498818051754,128.10477980908033
697,강원,강원도 횡성군 강림면 부곡2리617 번지,강림초등학교부곡분교장,1,37.353498818051754,128.10477980908033
698,강원,강원도 영월군 김삿갓면 내리40 번지,옥동초등학교조제분교장,0,37.07015062023085,128.7554161220196
699,충북,충청북도 청원군 남일면 두산리106-1,남일초등학교두산분교장,0,36.55751423932335,127.53988829688468
700,충북,충청북도 청원군 남일면 두산리106-1,남일초등학교두산분교장,1,36.55751423932335,127.53988829688468
701,충북,충청북도 청원군 남일면 두산리106-1,남일초등학교두산분교장,0,36.55751423932335,127.53988829688468
702,충북,충청북도 청원군 남일면 두산리106-1,남일초등학교두산분교장,1,36.55751423932335,127.53988829688468
703,충북,충청북도 괴산군 청천면 송문로덕평2길42,문광초등학교덕평분교장,0,36.73043874081679,127.79686334557407
704,충남,충청남도 금산군 복수면 용진길2,복수초등학교용진분교장,0,36.17149063503491,127.43141845462058
705,충남,충청남도 논산시 성동면 병촌리351,성광초등학교,0,36.19251556712117,127.01229208783238
706,충남,충청남도 논산시 성동면 병촌리351,성광초등학교,1,36.19251556712117,127.01229208783238
707,충남,충청남도 논산시 성동면 병촌리351,성광초등학교,0,36.19251556712117,127.01229208783238
708,충남,충청남도 논산시 성동면 병촌리351,성광초등학교,1,36.19251556712117,127.01229208783238
709,전북,전라북도 익산시 망성면 내촌리92,성남초등학교,0,36.099436176399045,127.04914582997564
710,전남,전남 순천시 황전면 선변리745,황전북초등학교용림분교장,0,35.15939754068101,127.45796825789714
711,전남,전라남도 순천시 해룡면 농주리12,해룡초등학교농주분교장,0,34.858814678933285,127.53737999019688
712,전남,전라남도 순천시 해룡면 농주리12,해룡초등학교농주분교장,1,34.858814678933285,127.53737999019688
713,전남,전라남도 순천시 해룡면 농주리12,해룡초등학교농주분교장,0,34.858814678933285,127.53737999019688
714,전남,전라남도 순천시 해룡면 농주리12,해룡초등학교농주분교장,1,34.858814678933285,127.53737999019688
715,전남,전라남도 담양군 남면 인암리238,남면초등학교인암분교장,0,35.1438174353853,127.06163626904934
716,전남,전라남도 담양군 남면 인암리238,남면초등학교인암분교장,1,35.1438174353853,127.06163626904934
717,전남,전라남도 담양군 남면 인암리238,남면초등학교인암분교장,0,35.1438174353853,127.06163626904934
718,전남,전라남도 담양군 남면 인암리238,남면초등학교인암분교장,1,35.1438174353853,127.06163626904934
719,전남,전남 해남군 화원면 매월리245,화원초등학교화원북분교장,0,34.73293013427845,126.30028839278143
720,전남,전남 영암군 신북면 학동리468,신북초등학교신북서분교장,0,34.92870443040442,126.67899288760242
721,전남,전남 영암군 시종면 신학리709,시종초등학교신학분교장,0,34.830538909921565,126.5902105595097
722,전남,전라남도 영광군 영광읍계송리 667,영광서초등학교,0,35.3005743889346,126.52018972135993
723,전남,전라남도 영광군 영광읍계송리 667,영광서초등학교,1,35.3005743889346,126.52018972135993
724,전남,전라남도 영광군 영광읍계송리 667,영광서초등학교,0,35.3005743889346,126.52018972135993
725,전남,전라남도 영광군 영광읍계송리 667,영광서초등학교,1,35.3005743889346,126.52018972135993
726,전남,전라남도 완도군 금일읍 신도길41-1,금일초등학교신도분교장,0,34.387152176184685,127.0464444835987
727,전남,전라남도 진도군 조도면 동거차도30-6,조도초등학교동거차분교장,0,34.238325039839374,125.93896237206788
728,전남,전라남도 진도군 조도면 동거차도30-6,조도초등학교동거차분교장,0,34.238325039839374,125.93896237206788
729,전남,전라남도 진도군 조도면 동거차도30-6,조도초등학교동거차분교장,0,34.238325039839374,125.93896237206788
730,전남,전라남도 진도군 조도면 동거차도30-6,조도초등학교동거차분교장,0,34.238325039839374,125.93896237206788
731,전남,전라남도 진도군 임회면 죽림리779번지,석교초등학교죽림분교장,0,34.39050773637695,126.25034180537465
732,전남,전라남도 진도군 임회면 죽림리779번지,석교초등학교죽림분교장,1,34.39050773637695,126.25034180537465
733,전남,전라남도 진도군 임회면 죽림리779번지,석교초등학교죽림분교장,0,34.39050773637695,126.25034180537465
734,전남,전라남도 진도군 임회면 죽림리779번지,석교초등학교죽림분교장,1,34.39050773637695,126.25034180537465
735,경북,경상북도 포항시 남구 구룡포읍 용주로7번길30,구룡포초등학교구동분교장,0,35.99173930746103,129.56109672623742
736,경북,경상북도 김천시 구성면 양각길139-12,구성초등학교양각분교장,0,36.083053070213204,128.07940095961402
737,경북,경상북도 구미시 산동면 임봉길51-8 번지,임봉초등학교,0,36.14038418243248,128.4593506648526
738,경북,경상북도 상주시 청리면 덕산1길16-5번지,청동초등학교,0,36.34157466507534,128.1133170589224
739,경북,경상북도 의성군 사곡면 의성사곡로965,사곡초등학교,0,36.30696991342657,128.78716901153254
740,경북,경상북도 영덕군 축산면영축로 963,영해초등학교축산분교장,0,36.50899946237171,129.40446537044406
741,경북,경북 고령군 쌍림면 안림천길19-6,안림초등학교,0,35.69200698854622,128.2601358443883
742,경북,경상북도 봉화군 석포면 청옥로1893,석포초등학교대현분교장,0,37.05954265497564,129.0042446011926
743,경남,경상남도 통영시 사량면 돈지리223-1,사량초등학교내지분교장,0,34.85535565901162,128.18290499857864
744,경남,경상남도 통영시 사량면 돈지리223-1,사량초등학교내지분교장,1,34.85535565901162,128.18290499857864
745,경남,경상남도 통영시 사량면 돈지리223-1,사량초등학교내지분교장,0,34.85535565901162,128.18290499857864
746,경남,경상남도 통영시 사량면 돈지리223-1,사량초등학교내지분교장,1,34.85535565901162,128.18290499857864
747,경남,경상남도 양산시 동면 사송리874-1,동면초등학교,0,35.312235786688255,129.07166235497857
748,경남,경상남도 남해군 설천면 덕신리1259-3,설천초등학교덕신분교장,0,34.932406481748565,127.87347365115288
749,경남,경상남도 남해군 설천면 덕신리1259-3,설천초등학교덕신분교장,1,34.932406481748565,127.87347365115288
750,경남,경상남도 남해군 설천면 덕신리1259-3,설천초등학교덕신분교장,0,34.932406481748565,127.87347365115288
751,경남,경상남도 남해군 설천면 덕신리1259-3,설천초등학교덕신분교장,1,34.932406481748565,127.87347365115288
752,울산,울산 울주군 두동면 봉계리1030-3번지,봉월초등학교,0,35.70181164748889,129.20712853984705
753,울산,울산 울주군 두동면 봉계리1030-3번지,봉월초등학교,1,35.70181164748889,129.20712853984705
754,울산,울산 울주군 두동면 봉계리1030-3번지,봉월초등학교,0,35.70181164748889,129.20712853984705
755,울산,울산 울주군 두동면 봉계리1030-3번지,봉월초등학교,1,35.70181164748889,129.20712853984705
756,경기,경기도 여주군 점동면 성주로584,점동초등학교뇌곡분교장,0,37.16217243328517,127.66083474058132
757,강원,강원도 삼척시 가곡면 청옥로4531,오저초등학교풍곡분교장,0,37.12632849808719,129.15699461504101
758,강원,강원도 홍천군 서면 개야마을길73,모곡초등학교강야분교장,0,37.69434363632039,127.62984564381748
759,강원,강원도 홍천군 내면 여차동길20,율전초등학교방내분교장,0,37.82584844920924,128.26622930643342
760,강원,횡성군 공근면 초학로15번지,공근초등학교광덕분교장,0,37.529065690820225,127.92670660538714
761,강원,횡성군 공근면 초학로15번지,공근초등학교광덕분교장,1,37.529065690820225,127.92670660538714
762,강원,횡성군 공근면 초학로15번지,공근초등학교광덕분교장,0,37.529065690820225,127.92670660538714
763,강원,횡성군 공근면 초학로15번지,공근초등학교광덕분교장,1,37.529065690820225,127.92670660538714
764,강원,강원 평창군 진부면 간평리103-2,진부초등학교월정분교장,0,37.70906265075483,128.59913389862706
765,강원,강원 평창군 진부면 간평리103-2,진부초등학교월정분교장,1,37.70906265075483,128.59913389862706
766,강원,강원 평창군 진부면 간평리103-2,진부초등학교월정분교장,0,37.70906265075483,128.59913389862706
767,강원,강원 평창군 진부면 간평리103-2,진부초등학교월정분교장,1,37.70906265075483,128.59913389862706
768,강원,강원도 평창군 방림면 계촌리520,계촌초등학교대미분교장,0,37.490989347958376,128.30394528326534
769,강원,강원도 철원군 갈말읍 강포2길18,강포초등학교,0,38.11600910762917,127.29414551826444
770,강원,강원도 양구군 동면 팔랑1리1289-3,임당초등학교팔랑분교장,0,38.21474082794501,128.09227332380803
771,강원,강원도 양구군 동면 팔랑1리1289-3,임당초등학교팔랑분교장,1,38.21474082794501,128.09227332380803
772,강원,강원도 양구군 동면 팔랑1리1289-3,임당초등학교팔랑분교장,0,38.21474082794501,128.09227332380803
773,강원,강원도 양구군 동면 팔랑1리1289-3,임당초등학교팔랑분교장,1,38.21474082794501,128.09227332380803
774,충북,충청북도 옥천군 이원면 지탄1길76,이원초등학교지탄분교장,0,36.2433754763325,127.6819846361745
775,충북,충청북도 음성군 음성읍 삼생리94,남신초등학교덕생분교장,0,36.91415843071939,127.623313579226
776,충북,충청북도 음성군 음성읍 삼생리94,남신초등학교덕생분교장,1,36.91415843071939,127.623313579226
777,충북,충청북도 음성군 음성읍 삼생리94,남신초등학교덕생분교장,0,36.91415843071939,127.623313579226
778,충북,충청북도 음성군 음성읍 삼생리94,남신초등학교덕생분교장,1,36.91415843071939,127.623313579226
779,충남,충청남도 공주시 계룡면 갑사로 307(중장리 422-1번지),중장초등학교,0,36.368516597598905,127.16507697931259
780,충남,충청남도 서산시 해미면 반양리395,반양초등학교,0,36.72101841076103,126.54093803555156
781,충남,충청남도 서산시 해미면 반양리395,반양초등학교,1,36.72101841076103,126.54093803555156
782,충남,충청남도 서산시 해미면 반양리395,반양초등학교,0,36.72101841076103,126.54093803555156
783,충남,충청남도 서산시 해미면 반양리395,반양초등학교,1,36.72101841076103,126.54093803555156
784,충남,충청남도 논산시 노성면 호월로113번길 6(호암리312),호암초등학교,0,36.304218203917905,127.08736515107157
785,충남,충청남도 청양군 대치면 청산로690-13(시전리 276번지),대치초등학교,0,36.46744511890228,126.85277470432786
786,전북,전라북도 군산시 옥서면 신오산길188,선연초등학교,0,35.90255705572068,126.63652704732878
787,전북,전라북도 정읍시 정우면정우길 149,회룡초등학교,0,35.65724592551478,126.90785871167778
788,전남,전라남도 여수시 관문동1길 39,여수자산초등학교,0,34.74289919044964,127.74536249587109
789,전남,전라남도 고흥군 남양면와야길 17,망주초등학교,0,34.75871807491346,127.3633553898501
790,전남,전라남도 고흥군 남양면와야길 17,망주초등학교,1,34.75871807491346,127.3633553898501
791,전남,전라남도 고흥군 남양면와야길 17,망주초등학교,0,34.75871807491346,127.3633553898501
792,전남,전라남도 고흥군 남양면와야길 17,망주초등학교,1,34.75871807491346,127.3633553898501
793,전남,전라남도 고흥군 봉래면 교동길17번지,봉래초등학교봉래남분교장,0,34.45128681112286,127.4900005459053
794,전남,전라남도 진도군 조도면 관매도리 457(전남 진도군 조도면 관대도길 93),조도초등학교관매분교장,0,34.23973447099243,126.05341376753681
795,전남,전라남도 신안군 지도읍동천길 176-48,지도초등학교동천분교장,0,35.04906456589548,126.24963944951703
796,전남,전라남도 신안군 하의면장병도길 70,하의초등학교장병분교장,0,34.65151797110152,126.04647078099735
797,전남,전라남도 신안군 신의면 기도길6-11,신의초등학교기도분교장,0,34.634429413101834,126.08531120065709
798,경북,경북 구미시 선산읍 김선로619번지,예산초등학교,0,36.215198418185174,128.2642794131715
799,경북,경북 영천시 한방로273-6,영천남부초등학교,0,35.94129908533039,128.9575209860573
800,경북,경북 영천시 한방로273-6,영천남부초등학교,1,35.94129908533039,128.9575209860573
801,경북,경북 영천시 한방로273-6,영천남부초등학교,0,35.94129908533039,128.9575209860573
802,경북,경북 영천시 한방로273-6,영천남부초등학교,1,35.94129908533039,128.9575209860573
803,경북,경상북도 상주시 화서면 문장로288번지(하송리 58),화령초등학교송계분교장,0,36.463684432816464,127.97791235167898
804,경북,경상북도 군위군 부계면 한밤8길 2대율초등학교,대율초등학교,0,36.062667313298185,128.65466730220268
805,경북,경상북도 군위군 부계면 한밤8길 2대율초등학교,대율초등학교,1,36.062667313298185,128.65466730220268
806,경북,경상북도 군위군 부계면 한밤8길 2대율초등학교,대율초등학교,0,36.062667313298185,128.65466730220268
807,경북,경상북도 군위군 부계면 한밤8길 2대율초등학교,대율초등학교,1,36.062667313298185,128.65466730220268
808,경북,경북 군위군 산성면 화본1길5,산성초등학교,0,36.1237542566734,128.6951780739574
809,경북,경상북도 영덕군 영덕읍야성길 15,야성초등학교,0,36.40754669963656,129.36773596663934
810,경북,경상북도 청도군 매전면 청매로1288,매전초등학교,0,35.64229819679276,128.83806134150322
811,경북,경상북도 성주군 수륜면 오천리280번지,지사초등학교,0,35.815640864506726,128.2316286936783
812,경북,경상북도 봉화군 물야면월계길 321,물야초등학교개단분교장,0,36.96663273879653,128.76131752717578
813,경북,경상북도 봉화군 물야면월계길 321,물야초등학교개단분교장,1,36.96663273879653,128.76131752717578
814,경북,경상북도 봉화군 물야면월계길 321,물야초등학교개단분교장,0,36.96663273879653,128.76131752717578
815,경북,경상북도 봉화군 물야면월계길 321,물야초등학교개단분교장,1,36.96663273879653,128.76131752717578
816,경북,경상북도 울릉군 서면 태하길130,남양초등학교태하분교장,0,37.512973855160226,130.80203567082546
817,경북,경상북도 울릉군 서면 태하길130,남양초등학교태하분교장,1,37.512973855160226,130.80203567082546
818,경북,경상북도 울릉군 서면 태하길130,남양초등학교태하분교장,0,37.512973855160226,130.80203567082546
819,경북,경상북도 울릉군 서면 태하길130,남양초등학교태하분교장,1,37.512973855160226,130.80203567082546
820,경남,경상남도 통영시 사량면 돈지길86-4,사량초등학교돈지분교장,0,34.839593187847804,128.18103522977654
821,경남,경상남도 통영시 사량면 능양윗길79,사량초등학교양지분교장,0,34.81305071632861,128.233690977599
822,경남,경상남도 통영시 사량면 하도일주로261-38,사량초등학교읍덕분교장,0,34.82555997428572,128.21157969592244
823,경남,경상남도 통영시 한산면 용호리호두1길 351,한산초등학교용호분교장,0,34.74972046578434,128.49453321307794
824,경남,경상남도 통영시 한산면 비진리내항길 42,한산초등학교비진분교장,0,34.730515052240946,128.46337855655418
825,경남,경상남도 사천시 곤명면  봉명로493(봉계리 848-3),곤명초등학교(통폐합),0,35.10965943924997,127.93835962453034
826,경남,경상남도 사천시 용현면 통양 1길53(사천시 용현면 통양리 108번지),선진초등학교,0,35.0382456834022,128.05462240964735
827,경남,경상남도 함안군 법수면장백로 675,관동초등학교,0,35.32241914818858,128.33028231791138
828,경남,경상남도 고성군 하일면 춘암4길1(춘암리 401-2번지),하일초등학교장춘분교장,0,34.912496162278764,128.1788703477438
829,부산,부산광역시 강서구 성북동   175(대항동),천가초등학교대항분교장,0,35.05964223526553,128.8322427307304
830,울산,울산광역시 울주군 상북면 이천리377,길천초등학교이천분교,0,35.54205158484567,129.01336925553196
831,울산,울산광역시 울주군 상북면 이천리377,길천초등학교이천분교,0,35.54205158484567,129.01336925553196
832,울산,울산광역시 울주군 상북면 이천리377,길천초등학교이천분교장,1,35.54205158484567,129.01336925553196
833,울산,울산광역시 울주군 상북면 이천리377,길천초등학교이천분교,0,35.54205158484567,129.01336925553196
834,울산,울산광역시 울주군 상북면 이천리377,길천초등학교이천분교,0,35.54205158484567,129.01336925553196
835,울산,울산광역시 울주군 상북면 이천리377,길천초등학교이천분교장,1,35.54205158484567,129.01336925553196
836,울산,울산광역시 울주군 상북면 이천리377,길천초등학교이천분교,0,35.54205158484567,129.01336925553196
837,울산,울산광역시 울주군 상북면 이천리377,길천초등학교이천분교,0,35.54205158484567,129.01336925553196
838,울산,울산광역시 울주군 상북면 이천리377,길천초등학교이천분교장,1,35.54205158484567,129.01336925553196
839,경기,경기도 용인시 처인구 원삼면 두창리복분로 29,원삼초등학교두창분교장,0,37.15836787802043,127.34309437712614
840,경기,경기도 화성시 동탄면 신리317-1,동탄초등학교신리분교장(폐교),0,37.18073468200391,127.14038197393477
841,경기,경기도 화성시 동탄면 신리317-1,동탄초등학교신리분교장,0,37.18073468200391,127.14038197393477
842,경기,경기도 화성시 동탄면 신리317-1,동탄초등학교신리분교장(폐교),0,37.18073468200391,127.14038197393477
843,경기,경기도 화성시 동탄면 신리317-1,동탄초등학교신리분교장,0,37.18073468200391,127.14038197393477
844,강원,강원도 정선군 여량면 구절리276-1 번지,여량초등학교구절분교장,0,37.51485518024253,128.73216051312258
845,강원,강원도 정선군 신동읍 고성리812 번지,예미초등학교고성분교장,0,37.25767114145235,128.59724942943026
846,강원,강원도 정선군 신동읍 고성리812 번지,예미초등학교고성분교장,1,37.25767114145235,128.59724942943026
847,강원,강원도 정선군 신동읍 고성리812 번지,예미초등학교고성분교장,0,37.25767114145235,128.59724942943026
848,강원,강원도 정선군 신동읍 고성리812 번지,예미초등학교고성분교장,1,37.25767114145235,128.59724942943026
849,강원,강원도 정선군 사북읍 사북1리270번지,사음초등학교,0,37.24076013234914,128.88051235129706
850,강원,강원 정선군 임계면 가목리107,임계초등학교군대분교장,0,37.5278128788472,128.94202422079667
851,충북,충청북도 진천군 덕산면 산수리산삼로 46,진천삼수초등학교매산분교장,0,36.885736044581385,127.48107698427543
852,충북,충청북도 진천군 덕산면 산수리산삼로 46,진천삼수초등학교매산분교장,1,36.885736044581385,127.48107698427543
853,충북,충청북도 진천군 덕산면 산수리산삼로 46,진천삼수초등학교매산분교장,0,36.885736044581385,127.48107698427543
854,충북,충청북도 진천군 덕산면 산수리산삼로 46,진천삼수초등학교매산분교장,1,36.885736044581385,127.48107698427543
855,충북,충청북도 괴산군 사리면 모래재로941,보광초등학교화곡분교장,0,36.79983834632918,127.712043542498
856,충남,충청남도 태안군 소원면 파도리198,파도초등학교,0,36.734430646166096,126.14122104720848
857,충남,충청남도 당진시 면천면 자개리622-1,남산초등학교,0,36.794095009571464,126.6703374000041
858,전남,전라남도 여수시 소경도 1길40-5번지(경호동 783-3번지),경호초등학교소경분교장,0,34.70643058111023,127.70754380794304
859,전남,전라남도 여수시 돌산읍상하동길 174,백초초등학교우두분교장,0,34.71430862584679,127.77682828116416
860,전남,전라남도 나주시 산포면 덕례리(산포면 덕례리 296),산포초등학교덕례분교장,0,35.050576884294465,126.81255265221101
861,전남,전라남도 담양군 봉산면 양지리135-1,봉산초등학교양지분교장,0,35.25375477073849,126.94825804762144
862,전남,전라남도 화순군 이양면 금능리80-2,이양초등학교금능분교장,0,34.924138290739286,126.99625707305454
863,전남,전라남도 화순군 이양면 금능리80-2,이양초등학교금능분교장,1,34.924138290739286,126.99625707305454
864,전남,전라남도 화순군 이양면 금능리80-2,이양초등학교금능분교장,0,34.924138290739286,126.99625707305454
865,전남,전라남도 화순군 이양면 금능리80-2,이양초등학교금능분교장,1,34.924138290739286,126.99625707305454
866,전남,전라남도 영광군 염산면 야월리300번지,염산초등학교야월분교장,0,35.22986478746736,126.31904595645986
867,전남,전라남도 영광군 염산면옥실리 158,송흥초등학교,0,35.191622884167685,126.37938046586737
868,전남,전라남도 영광군 법성면 신장리868,법성포초등학교진량분교장,0,35.33015694184879,126.47697547174013
869,전남,전라남도 진도군 의신면 송정리554,의신초등학교명금분교장,0,34.416273868356285,126.27170558620695
870,경북,경북 경주시 안강읍 육통리543-3번지,안강북부초등학교,0,36.0214615668845,129.22567530061065
871,경북,경북 경주시 안강읍 육통리543-3번지,안강북부초등학교,1,36.0214615668845,129.22567530061065
872,경북,경북 경주시 안강읍 육통리543-3번지,안강북부초등학교,0,36.0214615668845,129.22567530061065
873,경북,경북 경주시 안강읍 육통리543-3번지,안강북부초등학교,1,36.0214615668845,129.22567530061065
874,경북,경상북도 김천시 아포읍 지리376번지,지동초등학교,0,36.18500711577556,128.2522420763867
875,경북,경상북도 구미시 해평면 산양리57-1,해평초등학교향산분교장,0,36.226142093900286,128.37126125141148
876,경북,경상북도 구미시 해평면 산양리57-1,해평초등학교향산분교장,1,36.226142093900286,128.37126125141148
877,경북,경상북도 구미시 해평면 산양리57-1,해평초등학교향산분교장,0,36.226142093900286,128.37126125141148
878,경북,경상북도 구미시 해평면 산양리57-1,해평초등학교향산분교장,1,36.226142093900286,128.37126125141148
879,경북,경상북도 상주시 공성면 금계리33,공서초등학교,0,36.29980310183796,128.0777621917735
880,경북,경상북도 상주시 외남면 신촌리467,외남초등학교삼남분교장,0,36.345461027104996,128.07985701904497
881,경북,경상북도 고령군 우곡면 도진리270,우곡초등학교도진분교장,0,35.675943093757326,128.3432155918247
882,경북,경상북도 고령군 우곡면 도진리270,우곡초등학교도진분교장,1,35.675943093757326,128.3432155918247
883,경북,경상북도 고령군 우곡면 도진리270,우곡초등학교도진분교장,0,35.675943093757326,128.3432155918247
884,경북,경상북도 고령군 우곡면 도진리270,우곡초등학교도진분교장,1,35.675943093757326,128.3432155918247
885,경북,경상북도 봉화군 명호면 북곡리1309,명호초등학교북곡분교장,0,36.806136371138045,128.88785651200195
886,경북,경상북도 봉화군 명호면 북곡리1309,명호초등학교북곡분교장,1,36.806136371138045,128.88785651200195
887,경북,경상북도 봉화군 명호면 북곡리1309,명호초등학교북곡분교장,0,36.806136371138045,128.88785651200195
888,경북,경상북도 봉화군 명호면 북곡리1309,명호초등학교북곡분교장,1,36.806136371138045,128.88785651200195
889,경남,경상남도 밀양시 하남읍 대사리242-2,수산초등학교하남대사분교장,0,35.393477887595346,128.73353578151796
890,경기,경기도 양평군 서종면 명덕길 10(서종면.서종초등학교정배분교),서종초등학교정배분교장(폐교),0,37.602717741358425,127.4232632555224
891,강원,강원도 원주시 문막읍 내신동1길 60-39(문막읍),문막초등학교취병분교장,0,37.306317446134464,127.80009831945036
892,강원,강원 홍천군 두촌면 철정여내길 2(두촌면.철정초등학교),철정초등학교,0,37.80770949058753,127.99157857255695
893,강원,강원도 영월군 영월읍 동강로 1488-23(영월읍.봉래초문산분교),봉래초등학교문산분교장,0,37.26923704678349,128.5264137947267
894,충북,충청북도 옥천군 이원면 이원로 443(이원면.관공서(대성초등학교)),대성초등학교,0,36.212975885469405,127.63022301112484
895,충남,충청남도 홍성군 광천읍 광천로 169(광천읍.광남초등학교),광남초등학교,0,36.491864734253696,126.61792695518473
896,충남,충청남도 홍성군 광천읍 홍남동로 161(광천읍.대평초등학교),대평초등학교,0,36.51649131088436,126.66208731434295
897,충남,충청남도 당진시 대호지면 대호로 470(대호지면.유치원),도성초등학교,0,36.93232576149752,126.51358836024392
898,전남,전라남도 순천시 황전면 삽재팔동길 150(황전면.황전북초등학교),황전초등학교대치분교장,0,35.1267843212104,127.46800633493065
899,전남,전라남도 순천시 낙안면 창녕길 7(낙안면.낙안초등학교창녕분교장),낙안초등학교창녕분교장,0,34.920448112280084,127.38763940826105
900,전남,전라남도 광양시 진월면 대리동백길 5(진월면.진월북초등학교),진월초등학교월길분교장,0,35.0345227263149,127.75636879795259
901,전남,전라남도 해남군 문내면 문내화원로 541(문내면.문내초등학교),문내초등학교,0,34.632366253462074,126.34925333240645
902,전남,전라남도 해남군 문내면 신창길 36(문내면.문내동초등학교),문내동초등학교,0,34.60032646061525,126.35133476650864
903,전남,전라남도 해남군 문내면 증도길 31. 우수영초등학교중화분교장,우수영초등학교중화분교장,0,34.63240773252482,126.28332709181576
904,전남,전라남도 진도군 의신면 진도대로 1661(의신면.의동초등학교),의동초등학교,0,34.422230130199985,126.33359829897823
905,경북,경상북도 경주시 강동면 단구안계길 62-1(강동면)62-1,강동초등학교단구분교장,0,36.05140800539766,129.2442136285699
906,경북,경상북도 상주시 이안면 이안2길 3(이안면.함창초등학교숭덕분교장),함창초등학교숭덕분교장,0,36.5404478089886,128.16053955676665
907,경북,경상북도 의성군 단북면 중련길 22-8(단북면),단북초등학교,0,36.39013648709413,128.40692515531686
908,경남,경상남도 창원시 진해구 연도로 6(연도동),웅천초등학교연도분교장,0,35.0662429999055,128.7668854740254
909,경남,경상남도 통영시 욕지면 두미남부길 84-2(욕지면.원량초등학교두남분교),원량초등학교두남분교장,0,34.699813058556664,128.19899577917522
910,경남,경상남도 통영시 용남면 지도해안로 303(용남면.원평초교지도분교),원평초등학교지도분교장,0,34.9143373386382,128.4724155191308
911,경남,경상남도 김해시 한림면 김해대로 1439-11(한림면.신천초등학교),신천초등학교,0,35.27796076191291,128.82958723416286
912,경남,경상남도 밀양시 하남읍 백산로 292-10(하남읍.백산초등학교),백산초등학교,0,35.370595093980405,128.745787070182
913,서울,서울특별시 은평구 백련산로14길 20-11 (응암동.서울특별시립소년의집),알로이시오초등학교,0,37.59791960318845,126.92885957895449
914,서울,서울특별시 금천구 독산로50길 60 (시흥동.흥일초등학교),서울흥일초등학교,0,37.46214879752331,126.90706461525788
915,서울,서울특별시 강서구 양천로55길 22 (가양동.공진초등학교),서울공진초등학교공진분교장,0,37.56525169942191,126.85022943172063
916,인천,인천광역시 옹진군 영흥면 선재로34번길 197 (영흥면.영흥초등학교선재분교),영흥초등학교선재분교장,0,37.23789360761297,126.53426122466027
917,경기,경기도 포천시 창수면 창동로 115 . 보장초등학교 (창수면.보장초등학교),보장초등학교,0,38.028158193887506,127.19162425513589
918,강원,강원도 태백시 태백로 368 (화전동.화전초등학교),화전초등학교,0,37.202540750204,128.95542457749605
919,강원,강원도 홍천군 홍천읍 와동로219번길 24 주봉초등학교와동분교장,주봉초등학교와동분교장,0,37.72729790016313,127.94168498699949
920,충남,충청남도 서천군 장항읍 유부도길 43 (장항읍),송림초등학교유부도분교장,0,35.99495737201551,126.60086794212464
921,충남,충청남도 홍성군 장곡면 장곡길434번길 19 (장곡면.장곡초등학교오서분교장),장곡초등학교오서분교장,0,36.48582426769582,126.67809861783509
922,충남,충청남도 홍성군 갈산면 갈산서길475번길 14 (갈산면.광성초등학교),광성초등학교,0,36.63896351702528,126.53018547910109
923,전남,전라남도 여수시 남면 횡간해안길 94-8 (남면.화태초등학교여동분교장),화태초등학교여동분교장,0,34.579814182204515,127.75980675112869
924,전남,전라남도 보성군 벌교읍 장호길 14 . 벌교초등학교제석분교 (벌교읍.관사),벌교초등학교제석분교장,0,34.84686829181355,127.36459963624485
925,경북,경상북도 경주시 양남면 화림길 7-3 (양남면.양남초등학교상계분교장),양남초등학교상계분교장,0,35.66919743749442,129.42454524278264
926,경북,경상북도 김천시 아포읍 대신길 103 (아포읍.대신초등학교),대신초등학교,0,36.154469006205595,128.19584577623257
927,경북,경상북도 영양군 청기면 재일로 1383-23 . 일월초등학교청북분교장 (청기면),일월초등학교청북분교장,0,36.75705518816131,129.05336787150264
928,경북,경상북도 영덕군 영덕읍 창포길 2-11 (영덕읍.영덕초등학교창포분교장),영덕야성초등학교창포분교장,0,36.409346529540954,129.4279296063563
929,경북,경상북도 청도군 금천면 동곡1길 11-5 (금천면.동곡초등학교),동곡초등학교,0,35.69008040755413,128.89451092525314
930,경북,경상북도 청도군 금천면 청려로 4649 (금천면.방지초등학교),방지초등학교,0,35.7125577945056,128.9086597320071
931,경북,경상북도 봉화군 소천면 남회룡로 777 . 소천초등학교남회룡분교 (소천면),소천초등학교남회룡분교장,0,36.87659501248355,129.15337065010633
932,경남,경상남도 창원시 진해구 명동로 93 (명동.명동초등학교),웅천초등학교명동분교장,0,35.09714367140298,128.72081684105459
933,대구,대구광역시 북구 3공단로14길 31 .  삼영초등학교 (노원동3가),대구삼영초등학교,0,35.89391517295803,128.56302808043392
934,울산,울산광역시 울주군 상북면 석남로 832 . 궁근정초등학교 (상북면),궁근정초등학교,0,35.615530035991114,129.0675349390051
935,울산,울산광역시 울주군 상북면 명촌길천로 341 . 길천초등학교 (상북면),길천초등학교,0,35.58538324386497,129.084448860652
936,울산,울산광역시 울주군 상북면 상북로 162 . 향산초등학교 (상북면),향산초등학교,0,35.58207653187458,129.09968687901576
937,강원,강원도 원주시 귀래면 고청길 9 . 귀래초등학교귀운분교장 (귀래면),귀래초등학교귀운분교장,0,37.22414983427234,127.86349374391823
938,강원,강원도 삼척시 노곡면 노곡로 13-27 . 노곡분교 (노곡면),근덕초등학교노곡분교장,0,37.348049667228615,129.16340999593754
939,강원,강원도 삼척시 노곡면 문의재로 2522 . 마읍분교 (노곡면),근덕초등학교마읍분교장,0,37.27002559098628,129.1780604720467
940,강원,강원도 홍천군 서석면 행치령로 801-4 (서석면),서석초등학교항곡분교장,0,37.7656797277838,128.1771598106343
941,강원,강원도 횡성군 갑천면 외갑천로 301 (갑천면.당평초등학교),횡성초등학교당평분교장,0,37.566188512368576,128.04012976642701
942,강원,강원도 횡성군 둔내면 경강로 5353 (둔내면) 둔내초등학교 덕성분교,둔내초등학교덕성분교장,0,37.56695198488746,128.22603092239262
943,강원,강원도 평창군 평창읍 둥지버들길 138 (평창읍),약수초등학교,0,37.35068596027249,128.3698741603563
944,강원,강원도 고성군 거진읍 송용길 12 (거진읍),거진초등학교송정분교장,0,38.4423264653849,128.42255016589658
945,충남,충청남도 서산시 대산읍 웅도1길 82 (대산읍),대산초등학교웅도분교장,0,36.92006802068061,126.38400032386265
946,전남,전라남도 고흥군 점암면 화전2길 5 . 점암초등학교화계분교장 (점암면),점암초등학교화계분교장,0,34.65769854514261,127.43268348637207
947,전남,전라남도 영암군 도포면 영호길 89 . 도포초등학교영농분교장 (도포면),도포초등학교영농분교장,0,34.87138193676137,126.64736243156143
948,전남,전라남도 영광군 백수읍 성지로 882 (백수읍),백수초등학교백수동분교장,0,35.295240741805465,126.4503929314643
949,전남,전라남도 영광군 백수읍 상사길 25 (백수읍),백수남초등학교,0,35.26770445210794,126.372079302774
950,경북,경상북도 포항시 북구 청하면 사방공원길 27 (청하면.청하초등학교),청하초등학교청하남부분교장,0,36.16839283531971,129.34246351921334
951,경북,경상북도 안동시 풍천면 가일선원길 73 (풍천면.초등학교),풍서초등학교,0,36.5723482218397,128.52229736532706
952,경북,경상북도 안동시 풍천면 봉호로 3626 . 풍천초등학교 (풍천면),풍천초등학교,0,36.545052079717934,128.4616332736197
953,경북,경상북도 영덕군 영덕읍 매정길 235 (영덕읍),영덕야성초등학교매정분교장,0,36.44558640360793,129.4220337967111
954,경북,경상북도 봉화군 물야면 두문로 370 (물야면),물야초등학교수식분교장,0,36.93799487514248,128.6785660213311
955,경남,경상남도 함안군 칠북면 단내로 57 (칠북면),칠북초등학교,0,35.3479957699463,128.52761842020266
956,부산,부산광역시 강서구 제도로 434 (강동동.삼광초등학교),삼광초등학교,0,35.15209782765891,128.91733727599694
957,부산,부산광역시 강서구 가락대로 230-72 . 송정초등학교 (송정동),송정초등학교(폐교),0,35.106358771160366,128.842385863199
958,대구,대구광역시 북구 대동로1길 40 (산격동.대구대동초등학교),대구대동초등학교,0,35.89765566945,128.61190828368512
959,경기,경기도 수원시 팔달구 신풍로 15 . (신풍초. 신풍초등학교) (신풍동),신풍초등학교신풍분교장,0,37.282761486708594,127.01395113145924
960,경기,경기도 여주시 북내면 주암길 14 (북내면),북내초등학교주암분교장,0,37.398151893416774,127.67903723054695
961,경기,경기도 여주시 북내면 주암길 14 (북내면),북내초등학교주암분교장,1,37.398151893416774,127.67903723054695
962,경기,경기도 여주시 북내면 주암길 14 (북내면),북내초등학교주암분교장,0,37.398151893416774,127.67903723054695
963,경기,경기도 여주시 북내면 주암길 14 (북내면),북내초등학교주암분교장,1,37.398151893416774,127.67903723054695
964,경기,경기도 연천군 연천읍 현문로 459 (연천읍),연천초등학교고문분교장,0,38.065223000424865,127.11306982169351
965,강원,강원도 삼척시 하장면 오두재로 166 (하장면),하장초등학교역둔분교장,0,37.29408401372872,128.8811446969633
966,강원,강원도 홍천군 북방면 노일로38번길 31 . (북방면. 화계초등학교노일분교장) (북방면),화계초등학교노일분교장,0,37.67586288422281,127.74773614552912
967,강원,강원도 홍천군 동면 공작산로 1220 (동면),속초초등학교노천분교장,0,37.668391546376,128.01414445250757
968,강원,강원도 인제군 인제읍 한석산로 1654 (인제읍),인제초등학교가리산분교장,0,38.05880828811959,128.3245678760307
969,충북,충청북도 괴산군 불정면 동추산길 1 . 추산초등학교 (불정면),추산초등학교,0,36.90251930502141,127.81725176010413
970,충남,충청남도 공주시 이인면 검바위로 540 . 주봉초등학교 (이인면),주봉초등학교,0,36.38693449919655,127.0789289585652
971,충남,충청남도 홍성군 장곡면 무한로 1115 (장곡면),장곡초등학교반계분교장,0,36.506394363093435,126.75308486320229
972,전북,전라북도 군산시 내초안길 21-12 (내초동),해성초등학교내초분교장,0,35.951091963250555,126.5910244186774
973,전남,전라남도 광양시 진상면 신황길 126 (진상면),진상초등학교황죽분교장,0,35.05276873908745,127.68809172779848
974,전남,전라남도 보성군 웅치면 일림로 1013 . 웅치초등학교 (웅치면),웅치초등학교,0,34.71688787510922,127.02128786618016
975,전남,전라남도 신안군 안좌면 방월길 22-2 . 안좌초등학교반월분교장 (안좌면),안좌초등학교반월분교장,0,34.75510778139549,126.08826797878281
976,경북,경상북도 포항시 남구 지곡로 25 . 포항제철서초등학교 (효자동),포항제철서초등학교,0,36.00845608174237,129.3275049597489
977,경북,경상북도 경주시 천북면 물천안길 31 (천북면),천북초등학교물천분교장,0,35.86893398248732,129.28201019204278
978,경북,경상북도 상주시 낙동면 선상서로 1587 . 용포분교 (낙동면),낙동초등학교용포분교장,0,36.330381026580895,128.21345213062926
979,경북,경상북도 성주군 선남면 선노로 678 (선남면),도원초등학교선남동부분교장,0,35.93327006751465,128.39293759367823
980,경북,경상북도 봉화군 물야면 문수로 483 (물야면),물야초등학교북지분교장,0,36.93407063412441,128.7396294949825
981,경북,경상북도 울진군 금강송면 회룡천1길 26-5 (금강송면),삼근초등학교광회분교장,0,36.945769445546645,129.10320896965342
982,부산,부산광역시 금정구 금사로 217(회동동.회동초등학교),회동초등학교,0,35.23017434032509,129.12073945568457
983,부산,부산광역시 강서구 공항로811번길 46(대저2동),대저중앙초등학교,0,35.18041789304875,128.95558096532557
984,경기,경기도 안성시 원곡면 통심길 8(원곡면),원곡초등학교성은분교장,0,37.07105473886648,127.16482847250631
985,경기,경기도 연천군 전곡읍 첫마을길 17(전곡읍. 전곡초등학교적동분교장),전곡초등학교적동분교장,0,37.940531141483866,127.00080998058422
986,강원,강원도 삼척시 근덕면 방재로 16. 동막분교 (근덕면),근덕초등학교동막분교장,0,37.33868396860596,129.2434906970307
987,강원,강원도 횡성군 갑천면 갑천로 605(갑천면. 금성분교),갑천초등학교금성분교장,0,37.53812911594103,128.16223162261682
988,강원,강원도 영월군 북면 삼방산길 53-14. 마차초교연덕분교 (북면),마차초등학교연덕분교장,0,37.287880685621815,128.42667638396335
989,충북,충청북도 충주시 중앙탑면 첨단산업로 670(중앙탑면),중앙탑초등학교,0,37.026784803302824,127.8553477133125
990,충북,충청북도 보은군 속리산면 삼가구병길 9(속리산면),수정초등학교삼가분교장,0,36.491157537884575,127.86002721897808
991,충북,충청북도 영동군 양강면 학산영동로 495. 미봉초등학교 (양강면),미봉초등학교,0,36.1274165825992,127.72697405515522
992,충북,충청북도 단양군 대강면 온천로 719-7. 대강초등학교 장정분교장 (대강면),대강초등학교장정분교장,0,36.84675054246211,128.39504572376157
993,충남,충청남도 보령시 대해로 646(신흑동),청룡초등학교고대분교장,0,36.319602386024144,126.53853711349987
994,충남,충청남도 부여군 세도면 인세로 40-3. 인세초등학교 (세도면),인세초등학교,0,36.16669534716885,126.97283646332285
995,전북,전라북도 익산시 성당면 성당로 649(성당면),금성초등학교,0,36.12204034033177,126.92037285169435
996,전남,전라남도 여수시 삼산면 대동길 30(삼산면),초도초등학교,0,34.23838606292157,127.24929764006271
997,전남,전라남도 해남군 화산면 사포길 10. 화산남초등학교 (화산면),화산남초등학교,0,34.45199653943778,126.48442233165865
998,전남,전라남도 해남군 산이면 금호길 98(산이면),산이서초등학교금호분교장,0,34.690939258283485,126.3627466914478
999,전남,전라남도 무안군 현경면 해운동길 25(현경면.현경초등학교해운분교장),현경초등학교해운분교장,0,35.06027256606965,126.46352640220873
1000,경북,경상북도 청도군 운문면 운문로 1558(운문면),금천초등학교문명분교장,0,35.6848276431736,128.96162063561226
1001,경북,경상북도 성주군 금수면 성주로 587-4(금수면),가천초등학교무학분교장,0,35.92598888657253,128.09715729880793
1002,경남,경상남도 진주시 대평면 한들길 65(대평면),한평초등학교,0,35.234767795877296,127.95971679118132
1003,전남,전라남도 신안군 흑산면가거도리 266,가거도초등학교,1,34.05290894397946,125.13020673828434
1004,충북,충청북도 청주시 흥덕구장구봉로 93(복대2동 2443),가경초등학교,1,36.62443315288669,127.44362858384716
1005,경남,경상남도 창원시 마산회원구 양덕동84-3,가고파초등학교,1,35.22552352239992,128.5805425148861
1006,충북,충청북도 단양군 가곡면 사평리435번지,가곡초등학교,1,37.02733943475426,128.38521641056775
1007,충북,충청북도 단양군 가곡면 대대리220-1,가곡초등학교대곡분교장,1,36.99800792134485,128.42705139332315
1008,충북,충청북도 단양군 가곡면 보발본동1길 17. 가곡초등학교 보발분교장 (가곡면.가곡초등학교보발분교장),가곡초등학교보발분교장,1,37.02909544619865,128.44881386589512
1009,충북,충청북도 충주시 중앙탑면 첨단산업로 670 (중앙탑면),가금초등학교,1,37.026784803302824,127.8553477133125
1010,충북,충청북도 충주시 중앙탑면 첨단산업로 670 (중앙탑면),중앙탑초등학교,1,37.026784803302824,127.8553477133125
1011,충북,충청북도 충주시 중앙탑면 첨단산업로 670 (중앙탑면),가금초등학교,1,37.026784803302824,127.8553477133125
1012,충북,충청북도 충주시 중앙탑면 첨단산업로 670 (중앙탑면),중앙탑초등학교,1,37.026784803302824,127.8553477133125
1013,충남,충청남도 청양군 비봉면 충절로1962-7(록평리 29번지),가남초등학교,1,36.516605289998154,126.78821066550407
1014,경기,경기도 양주시 광적면 부흥로 793. 가납초등학교 (광적면),가납초등학교,1,37.81927674476327,126.98302735666635
1015,경기,경기도 평택시 비전2로 265(죽백동. 가내초등학교),가내초등학교,1,37.006561015708,127.11439480775248
1016,경기,경기도 의정부시 의정로140번길 15. 가능초등학교 (가능동),가능초등학교,1,37.746053146814205,127.03558652787028
1017,충북,충청북도 청주시 상당구 가덕면 단재로 1448(가덕면),가덕초등학교,1,36.578341205726474,127.57833408219946
1018,부산,부산광역시 기장군 정관읍 정관5로 100(정관읍),가동초등학교,1,35.3265349695003,129.17886551450394
1019,세종,세종특별자치시  세종로 941(새롬동. 가득초등학교),가득초등학교,1,36.48751923650061,127.2440473649572
1020,세종,세종특별자치시  마음로 208가락초등학교 (고운동),가락초등학교,1,36.515416587482775,127.23077831243893
1021,경남,경상남도 진주시 상평동278-1 (남강로 959번길 22),가람초등학교,1,35.17331105695802,128.10144798266094
1022,경남,경상남도 의령군 가례면 수성리199-2,가례초등학교,1,35.333190039374266,128.24648563121931
1023,경기,경기도 광명시 하안3동297번지,가림초등학교,1,37.45831403054672,126.87911106016136
1024,제주,제주특별자치도 서귀포시 표선면 일주동로6285번길 8. 가마초등학교 (표선면),가마초등학교,1,33.30532604864218,126.79957925513253
1025,경남,경상남도 거창군 가북면가북로 628(우혜리 1895번지),가북초등학교,1,35.76281918231615,127.9927334732977
1026,충남,충청남도 서산시 부석면 강경벌로 478. 가사초등학교 (부석면.가사초등학교),가사초등학교,1,36.75257303098317,126.37160868412843
1027,부산,부산광역시 부산진구 엄광로182번길 49가산초등학교,가산초등학교,1,35.146358422507554,129.03556506141894
1028,대전,대전광역시 서구 벌곡로 1359(가수원동.가수원초등학교),가수원초등학교,1,36.30267459288655,127.35361706213058
1029,경기,경기도 오산시 가수로50,가수초등학교,1,37.14799169099233,127.04780790353449
1030,충남,충청남도 논산시 가야곡면 덕은로160(강청리 343-14),가야곡초등학교,1,36.143721230933664,127.16876029064586
1031,부산,부산광역시 부산진구 대학로22(가야동) 가야초등학교,가야초등학교,1,35.15338798118728,129.0355383068887
1032,경남,경상남도 양산시 물금읍 물금로 60(물금읍),가양초등학교,1,35.31048175461902,128.99136355883707
1033,경기,경기도 남양주시 가운로2길 54(가운동.가운초등학교),가운초등학교,1,37.60062384256563,127.155974614932
1034,경기,경기도 안성시 보개면 이전리347-2번지,가율초등학교,1,37.05966336171547,127.29574267939195
1035,경북,경상북도 문경시 가은읍 상괴리450,가은초등학교희양분교장,1,36.67013422815732,128.0117628272442
1036,경북,경상북도 의성군 가음면 산성가음로2194,가음초등학교,1,36.23163912457075,128.72770297063605
1037,경남,경상남도 거창군 가조면 마상리336-4,가조초등학교,1,35.710920719046925,128.01373458966088
1038,경남,경상남도 진주시 내동로348번길 17(가좌동.가좌초등학교),가좌초등학교,1,35.14931540922605,128.10335873494662
1039,전북,전북 완주군 경천면가천리 351,가천초등학교,1,36.03260957162053,127.26386867060249
1040,경북,경상북도 성주군 금수면 성주로587-4,가천초등학교무학분교장,1,35.92598888657253,128.09715729880793
1041,제주,제주특별자치도 서귀포시 대정읍 가파리67번길 45,가파초등학교,1,33.1691099334175,126.27038969660852
1042,제주,제주특별자치도 서귀포시 대정읍 마라로58,가파초등학교마라분교장,0,33.119033314702975,126.26665534918514
1043,경기,경기도 가평군 가평읍 마장리357번지,가평마장초등학교,1,37.86001569058234,127.51453502862732
1044,충북,충청북도 단양군 매포읍 가평길58,가평초등학교,1,37.07302444016639,128.28263005627574
1045,경남,경상남도 합천군 가회면 황매산로58-2번지,가회초등학교,1,35.43565123993928,128.0343630071694
1046,충북,충청북도 충주시 중앙탑면 가곡로 2037. 가흥초등학교 (중앙탑면),가흥초등학교,1,37.07654982771457,127.85356737710127
1047,경기,경기도 안산시 상록구 석호로384번지,각골초등학교,1,37.29281502381024,126.87335850666707
1048,경북,경상북도 청도군 각남면 예리498,각남초등학교,1,35.642695276567345,128.65721390862845
1049,충북,충청북도 청주시 청원구 오창읍 오창중앙로 47-8. 각리초등학교 (오창읍),각리초등학교,1,36.70664772685527,127.42398277129287
1050,전남,전라남도 구례군 간전면간전중앙로 164번지,간문초등학교,1,35.17725418602227,127.54202741223429
1051,강원,강원도 고성군 간성읍 신안리192번지,간성초등학교,1,38.37747250565013,128.46926799747243
1052,전북,전북 완주군 용진면 간중리616-1,간중초등학교,1,35.89089358151156,127.18126929491972
1053,경기,경기도 용인시 기흥구강남동로 61,갈곡초등학교,1,37.27119691614595,127.13355045581379
1054,전북,전북 임실군 강진면 갈담리347번지,갈담초등학교,1,35.53110525408029,127.16555810622091
1055,강원,강원도 정선군 고한읍고한로300,갈래초등학교,1,37.19500783083558,128.8663941286642
1056,경기,경기도 의왕시 내손동780,갈뫼초등학교,1,37.376606967704966,126.97229333530709
1057,충남,충청남도 홍성군 갈산면 상촌리70,갈산초등학교,1,36.602420645497475,126.55453937747042
1058,충북,충청북도 청주시 서원구 남이면 저산척북로 375(남이면. 갈원초등학교),갈원초등학교,1,36.56874655656127,127.39657678662293
1059,경남,경상남도 하동군 금성면 금성로521,갈육초등학교,1,34.948718621635535,127.78398990114685
1060,경남,경상남도 진주시 사들로 173(충무공동),갈전초등학교,1,35.18294230234285,128.14898573141255
1061,경기,경기도 화성시 향남읍 발안로 701-23(향남읍.갈천초등학교),갈천초등학교,1,37.12738707861579,126.98068936714594
1062,경기,경기도 파주시 탄현면 평화로591번길 76(탄현면),갈현초등학교,1,37.77190782584228,126.7169296584494
1063,경남,경상남도 창원시 의창구 북면 감계로140번길 51(북면),감계초등학교,1,35.30033888347541,128.58860103556367
1064,충북,충청북도 음성군 감곡면 장감로 207. 감곡초등학교 (감곡면),감곡초등학교,1,37.11610732255416,127.64448416508142
1065,충북,충청북도 괴산군 감물면 오성리81-1,감물초등학교,1,36.839050781686616,127.87159281453744
1066,충남,충청남도 연기군 금남면 감성리46,감성초등학교,1,36.44353580172481,127.2890552432327
1067,부산,부산광역시 사상구 괘감로132(감전동),감전초등학교,1,35.15578442151766,128.98827424992078
1068,경기,경기도 김포시 태장로 821 . 감정1초등학교 (장기동),감정1초등학교,1,37.634875083796274,126.67816018383176
1069,부산,부산광역시 사하구 옥천로 130(감천동.감정초등학교),감정초등학교,1,35.096986464073424,129.01086293615046
1070,부산,부산광역시 사하구 원양로 368-2(감천동.감천초등학교),감천초등학교,1,35.083412036694476,129.0075432604824
1071,경북,경상북도 경주시 감포읍 감포로10길21,감포초등학교,1,35.810001889508946,129.50183759176474
1072,인천,인천광역시 강화군 강화읍 갑룡길 88. 갑룡초등학교 (강화읍.갑룡초등학교),갑룡초등학교,1,37.74372609694194,126.50346681999369
1073,강원,강원도 횡성군 청정로262번지,갑천초등학교,1,37.55741563676282,128.10799198703594
1074,강원,강원 횡성군 갑천면 하대리44번지,갑천초등학교금성분교,1,37.53812911594103,128.16223162261682
1075,강원,강원도 횡성군 갑천면 하대리605번지,갑천초등학교금성분교장,1,37.52706501300028,128.15308236640072
1076,충남,충청남도 논산시 강경읍 산양길45 (산양리 237),강경산양초등학교,1,36.14753668141618,127.021996668274
1077,충남,충청남도 논산시 강경읍 황산리34번길 5(강경읍 황산리 31-2),강경황산초등학교,1,36.157855053112286,127.01303347769462
1078,경북,경상북도 영덕군 강구면나비산길 8,강구초등학교,1,36.357203581956746,129.37852864333522
1079,울산,울산광역시 남구 중앙로166번길 51(달동.강남초등학교),강남초등학교,1,35.53790738204048,129.31880438583406
1080,충북,충청북도 청주시 흥덕구 강내면 태성탑연로 117. 강내초등학교 (강내면),강내초등학교,1,36.59710309545688,127.35682452839458
1081,충남,충청남도 서산시 부석면 인정로 183번지(강당리 510번지),강당초등학교,1,36.66196273106205,126.4013553695517
1082,울산,울산광역시 북구 화암4길 5(산하동. 강동초등학교),강동초등학교,1,35.6311605252815,129.43486463921118
1083,경북,경상북도 경주시 강동면 단구안계길62-1,강동초등학교단구분교장,1,36.05140800539766,129.2442136285699
1084,강원,강원도 강릉시 홍제동38번지,강릉초등학교,1,37.75345044290732,128.88819359860076
1085,강원,강원도 횡성군 강림면 태종로강림4길 11. 강림초등학교 (강림면. 강림초등학교),강림초등학교,1,37.35827043741387,128.1201053930971
1086,강원,강원 횡성군 강림면 부곡리617,강림초등학교 부곡분교장,1,37.331367602956135,128.08642524243768
1087,충북,충청북도 청주시 흥덕구 비하로9번길 38. 강서초등학교 (비하동),강서초등학교,1,36.6282370226061,127.42351709157828
1088,경기,경기도 고양시 일산서구 주엽동64번지,강선초등학교,1,37.67104351110074,126.7649784886418
1089,충북,충북 청원군 오송읍 오송2길26,강외초등학교,1,36.612695673843604,127.32559799694208
1090,제주,제주특별자치도 서귀포시 말질로188,강정초등학교,1,33.234760693080446,126.4788459577485
1091,전남,전라남도 강진군 강진읍중앙로 180,강진동초등학교,1,34.64039422347275,126.77606571899089
1092,전남,전라남도 강진군 강진읍지전로안길 83,강진북초등학교,1,34.64156795189583,126.73391815187924
1093,충북,충청북도 충주시 앙성면학교말2길 50,강천초등학교,1,37.162568481956015,127.75218772667806
1094,강원,강원도 철원군 갈말읍 강포리81-4 번지,강포초등학교,1,38.11600910762917,127.29414551826444
1095,경기,경기도 양평군 강하면 운심리43-2,강하초등학교,1,37.496199910323284,127.40967035990136
1096,강원,강원도 양양군 강현면 진미로12번길 22(강현면),강현초등학교,1,38.14931172448289,128.6040189552085
1097,인천,인천광역시 강화군 강화읍 북문길 36. 강화초등학교 (강화읍. 강화초등학교),강화초등학교,1,37.75022588295893,126.48628968767453
1098,경기,경기도 김포시 월곶면 애기봉로 445(월곶면.개곡초등학교),개곡초등학교,1,37.731861213570404,126.59352700428086
1099,경기,경기도 양평군 개군면 하자포리자진개1길 23,개군초등학교,1,37.427682013961984,127.53464094247887
1100,부산,부산광역시 부산진구 개금동476-1,개금초등학교,1,35.15432253657845,129.01998045582843
1101,경북,경상북도 김천시 개령면 동부리60,개령초등학교,1,36.167604253967035,128.19222217275842
1102,부산,부산광역시 부산진구 백양대로320번길40(개금동),개림초등학교,1,35.15606362257287,129.01630150547018
1103,경기,경기도 안성시 금광면 외개산길 42(금광면),개산초등학교,1,36.984466467762644,127.30160207958622
1104,울산,울산광역시 남구 선암동559-11,개운초등학교,1,35.51264296250187,129.31178680318118
1105,부산,부산광역시 부산진구 백양관문로77번길 17. 개원초등학교 (개금동),개원초등학교,1,35.16478831446704,129.02852251922042
1106,경북,경상북도 고령군 개진면 오사길83,개진초등학교,1,35.716497685052914,128.36906904574164
1107,경남,경상남도 고성군 개천면 옥천로1268,개천초등학교,1,35.09838842897648,128.26011835363755
1108,부산,부산광역시 부산진구 백양대로208번길9(개금동)개포초등학교,개포초등학교,1,35.158497732524644,129.02661056733643
1109,충남,충청남도 보령시 성주면 성주산로735,개화초등학교,1,36.306695333355336,126.65427893746023
1110,경남,경상남도 고성군 거류면 당동리66,거류초등학교,1,34.993596654425765,128.40425625817682
1111,전남,전라남도 여수시 삼산면거문학교길25,거문초등학교,1,34.02617763845353,127.31264898114729
1112,전남,전라남도 여수시 삼산면 덕흥1길26,거문초등학교덕촌분교장,0,34.02530979275622,127.3035247577269
1113,전남,전라남도 여수시 삼산면 동도리1012,거문초등학교동도분교장,1,34.04979801889041,127.31243673180886
1114,전남,전라남도 여수시 삼산면 서도리25,거문초등학교서도분교장,0,34.05592851076617,127.29635085448909
1115,전남,전라남도 여수시 삼산면 손죽새터길 6-7거문초등학교손죽분교장,거문초등학교손죽분교장,1,34.28533386184605,127.35897705215734
1116,충남,충청남도 아산시 송악면 외암로460,거산초등학교,1,36.692007387614865,126.9896116565888
1117,강원,강원도 고성군 거진읍 거진리180,거성초등학교,1,38.45228383929149,128.45757866317447
1118,경남,경상남도 거제시 상동동497,거제고현초등학교,1,34.87361044145688,128.62891981674244
1119,경남,경상남도 거제시 상동5길 75-41. 거제상동초등학교 (상동동. 거제상동초등학교),거제상동초등학교,1,34.861508986999986,128.63422704978746
1120,경남,경상남도 거제시 중곡로2길 45. 거제중앙초등학교 (고현동),거제중앙초등학교,1,34.89544385533605,128.63475461685042
1121,부산,부산광역시 연제구 해맞이로 39(거제동.거제초등학교),거제초등학교,1,35.17790187346185,129.06689914010656
1122,강원,강원도 고성군 거진읍 자산리72번지,거진초등학교,1,38.43790849488252,128.44554797676614
1123,강원,강원도 고성군 거진읍 송정리139 번지,거진초등학교송정분교장,1,38.4423264653849,128.42255016589658
1124,경남,경상남도 거창군 거창읍 중앙리311,거창초등학교,1,35.68756755997497,127.91097122638584
1125,부산,부산광역시 연제구 교대로24번길 36(거제동.거학초등학교),거학초등학교,1,35.19715138575297,129.07717069989036
1126,광주,광주광역시 북구 첨단연신로108번길 86. 건국초등학교 (신용동),건국초등학교,1,35.21049164366771,126.86582878581972
1127,경기,경기도 구리시 인창동514,건원초등학교,1,37.607258655551604,127.13561221911095
1128,경북,경상북도 경주시 건천읍 내서로1105,건천초등학교,1,35.85070944333885,129.10305665624628
1129,경기,경기도 김포시 걸포로22(걸포동1565)걸포초등학교,걸포초등학교,1,37.63340194653261,126.70756783294053
1130,울산,울산광역시 울주군 웅촌면 은현작동로 58. 검단초등학교 (웅촌면),검단초등학교,1,35.457562836478736,129.177698239781
1131,경기,경기도 시흥시 은행동258-1,검바위초등학교,1,37.43250114271083,126.79918428750216
1132,경기,경기도 파주시 검산로10,검산초등학교,1,37.776056717028546,126.73916604514456
1133,울산,울산시 남구 문수로344번길 4,격동초등학교,1,35.53395644322235,129.29018382595282
1134,전북,전북 부안군 변산면격포리 271-53,격포초등학교,1,35.625940952746575,126.47427452983408
1135,충남,충청남도 홍성군 결성면 홍남서로738번길 30(결성면.결성초등학교),결성초등학교,1,36.524430438232955,126.54449608324181
1136,서울,서울특별시 서대문구 충정로2가70번지,경기초등학교,1,37.565308702620136,126.9637706972869
1137,충북,충청북도 청주시 흥덕구 장구봉로36(가경동 1504),경덕초등학교,1,36.62121306877156,127.43811892074841
1138,서울,서울특별시 광진구 천호대로130길 58. 경복초등학교 (능동),경복초등학교,1,37.550397486961,127.0873367696133
1139,대구,대구광역시 중구 봉산동162 (중구 달구벌대로 2150),경북대학교사범대학부설초등학교,1,35.86382360228935,128.5981285169855
1140,경북,경상북도 경산시 원효로28길 60-6(계양동.동부초등학교),경산동부초등학교,1,35.817847413442195,128.74875725350716
1141,경북,경상북도 경산시 옥산동736-1번지,경산서부초등학교,1,35.82701721775615,128.72908535254751
1142,경북,경상북도 경산시 압량면 압독2로 38(압량면),경산압량초등학교,1,35.840292791827146,128.76648789113912
1143,경북,경상북도 경산시중앙초등길 9,경산중앙초등학교,1,35.82297367432041,128.73153807220666
1144,충북,충청북도 청주시 흥덕구경산로 82-12,경산초등학교,1,36.62515052778,127.4406946581528
1145,경기,경기도 안산시 상록구 성포동594-3,경수초등학교,1,37.32699176045403,126.85060885537558
1146,경기,경기도 광주시 경안로 163. 경안초등학교 (경안동),경안초등학교,1,37.411371901765655,127.24759086164892
1147,광주,광주광역시 북구 북문대로98번길 20. 경양초등학교 (운암동),경양초등학교,1,35.18032772658949,126.87852555005622
1148,경남,김해시 우암로 73번길 8(내동)경운초등학교,경운초등학교,1,35.238153742679344,128.8609996598345
1149,경기,경기도 의정부시 의정부3동366번지,경의초등학교,1,37.73381952215508,127.05101817209957
1150,인천,인천광역시 계양구 효성동산19-1(안남로 656번지),경인교육대학교부설초등학교,1,37.53773259853058,126.71253105895822
1151,경기,경기도 안산시 상록구 성포로 47(성포동.경일초등학교),경일초등학교,1,37.32383797429525,126.84764554482412
1152,경북,경상북도 경주시 충효2길 20(충효동.경주초등학교),경주초등학교,1,35.84238672771821,129.18961586498506
1153,충남,충청남도 공주시 계룡면신원사로 112(경천리 371-1),경천초등학교,1,36.32427093051741,127.14964615294883
1154,강원,강원도 강릉시 안현동106-6번지(민미마을길 21),경포대초등학교,1,37.80492403546235,128.90053967024156
1155,강원,강원도 강릉시 솔올로 90. 경포초등학교 (교동),경포초등학교,1,37.7697972836988,128.87973490572114
1156,전남,전라남도 여수시 대경도4길 48경호초등학교 (경호동),경호초등학교,1,34.716600854865234,127.72793513956196
1157,전남,전라남도 여수시 소경도1길40-5,경호초등학교소경분교장,1,34.70643058111023,127.70754380794304
1158,경남,경상남도 창원시 진해구 경화로38번길 5(경화동.경화초등학교),경화초등학교,1,35.157313883815476,128.68693672655976
1159,전남,전라남도 해남군 계곡면성진리 231-1,계곡초등학교,1,34.646202774811464,126.6565864375608
1160,전북,전북 장수군 계남면 화음리971번지,계남초등학교,1,35.70196955929038,127.57820026215404
1161,경남,경상남도 김해시 장유면 대청리333-1,계동초등학교,1,35.184758328396924,128.79521347925524
1162,충남,충청남도 공주시 계룡면 유평리286번지,계룡초등학교,1,36.35758883593546,127.14123349579985
1163,전북,전북 장수군 계북면 어전리742번지,계북초등학교,1,35.78698756174743,127.6172460045588
1164,전남,전라남도 강진군 군동면호계리 709-1,계산초등학교,1,34.64558265472988,126.78598193288805
1165,충남,충청남도 당진시 읍내동13,계성초등학교,1,36.8986279445588,126.63864412847842
1166,광주,광주광역시 서구 치평동1166-6,계수초등학교,1,35.15589496673079,126.84487250570973
1167,강원,강원도 평창군 방림면 계촌리1478-2,계촌초등학교,1,37.452589733699995,128.30437674512712
1168,강원,강원도 평창군 방림면 계촌2리519 번지,계촌초등학교대미분교장,1,37.46477723085543,128.35909988054152
1169,전북,전북 부안군 계화면계화리 233,계화초등학교,1,35.78556496348847,126.63810902338156
1170,경기,경기도 부천시 오정구 역곡로482번길 57. 고강초등학교 (고강동),고강초등학교,1,37.52688416501179,126.81969317503055
1171,경북,경상북도 영천시 고경면 호국로1276,고경초등학교,1,36.0030725117075,129.06833831642356
1172,전남,전라남도 완도군 고금면덕암리 644,고금초등학교,1,34.397007713889735,126.80013668994495
1173,경기,경기도 용인시 수지구 고기로 385고기초등학교,고기초등학교,1,37.35881628889256,127.06611457013013
1174,충남,충청남도 태안군 고남면 안면대로 4189(고남면.고남 초등학교),고남초등학교,1,36.42639120224917,126.40426627864636
1175,전남,전라남도 곡성군 고달면목동리 730,고달초등학교,1,35.29634544765861,127.34178849523596
1176,충남,충청남도 예산군 고덕면 황금뜰로203,고덕초등학교,0,36.747520823802375,126.7027766342455
1177,경북,경상북도 고령군 대가야읍 왕정길 10(대가야읍),고령초등학교,1,35.734295874875656,128.26898997335908
1178,경기,경기도 부천시 오정구 고리울로 93. 고리울초등학교 (고강동),고리울초등학교,1,37.52707193031607,126.8271638505618
1179,경기,경기도 용인시 처인구한터로 152번길 22,고림초등학교,1,37.24720174775687,127.22726527646769
1180,경북,경상북도 군위군 효령면 용매로970,고매초등학교,1,36.09704434142804,128.5825154358665
1181,경기,경기도 고양시 일산동구 중산로 280고봉초등학교,고봉초등학교,1,37.69621077847696,126.78251029972584
1182,전북,전북 완주군 고산면 소향리318-1,고산동초등학교,1,35.98852909711597,127.25701943597956
1183,충남,충청남도 당진시 고대면 장항리1050-2,고산초등학교,1,36.95723449937144,126.57239096343348
1184,경기,경기도 안성시 고삼면 고삼호수로 37(고삼면.고삼초등학교),고삼초등학교,1,37.08238620865229,127.26458789795628
1185,경기,경기도 수원시 권선구 매송고색로 681. 고색초등학교 (고색동),고색초등학교,1,37.2513681446066,126.97894898241215
1186,전남,전라남도 담양군 고서면원등1길 7,고서초등학교,1,35.224303357219746,126.9738615672915
1187,전남,전라남도 진도군 고군면고성리 64-1,고성초등학교,1,34.49824377068077,126.32189262821392
1188,전북,전북 고창군 고수면 황산리215,고수초등학교,1,35.40423003453904,126.68590809876518
1189,광주,광주광역시 광산구 풍영로 300(장덕동),고실초등학교,1,35.19816834764487,126.81636496424721
1190,경북,경상북도 구미시 고아읍 관심리541 번지,고아초등학교,1,36.21202437317822,128.32932432935735
1191,경기,경기도 고양시 덕양구 통일로726번길 130. 고양관산초등학교 (관산동),고양관산초등학교,1,37.69202177590183,126.86638779555288
1192,경기,경기도 고양시 일산동구 백석동강촌로 140,고양백석초등학교,1,37.651873130003146,126.78916686551436
1193,경기,경기도 고양시 일산서구 일산3동1075번지,고양신일초등학교,1,37.67923914222053,126.7706433543489
1194,경기,경기도 고양시 덕양구 오금1로 10. 고양오금초등학교 (오금동),고양오금초등학교,1,37.66182127029409,126.89520626159542
1195,경기,경기도 고양시 덕양구 화신로 21(행신동.고양용현초등학교),고양용현초등학교,1,37.614884071400546,126.83821011656552
1196,경기,경기도 고양시 덕양구 혜음로13번길 22-7. 고양초등학교 (고양동),고양초등학교,1,37.702780148952215,126.8998432593349
1197,경기,경기도 고양시 일산서구 대화동882,고양한내초등학교,1,37.668549025190714,126.7357570477054
1198,경기,경기도 고양시 덕양구 화정동860번지,고양화수초등학교,1,37.645099032915134,126.83269670107029
1199,경기,경기도 고양시 덕양구 화정동942번지,고양화정초등학교,1,37.63365777422956,126.82607439616665
1200,세종,세종특별자치시  만남로 45(고운동),고운초등학교,1,36.50418751631252,127.23664765551422
1201,경기,경기도 안산시 단원구 적금로 182. 고잔초등학교 (고잔동.고잔초등학교),고잔초등학교,1,37.32429648056417,126.82722768687613
1202,경남,경상남도 하동군 고전면 하동읍성로371,고전초등학교,1,35.02499252484356,127.81822480461916
1203,경기,경기도 화성시 송산면공룡로 326(고정리 1103번지),고정초등학교,1,37.23800811416734,126.73812835307449
1204,경남,경상남도 거창군 고제면 궁항리333,고제초등학교,1,35.8304926699266,127.88634700905337
1205,전북,전북 고창군 고창읍 읍내리542-2,고창남초등학교,1,35.42956197967143,126.69773370519943
1206,경기,경기도 의왕시 효행로 10. 고천초등학교 (고천동),고천초등학교,1,37.348571273895146,126.97529674364174
1207,경기,경기도 김포시 고촌읍신곡리 1101(신곡로 29번길 30),고촌초등학교,1,37.60599840797943,126.77350940619786
1208,강원,강원도 정선군 고한읍 고한리74,고한초등학교,1,37.20293004775586,128.85323147531142
1209,전남,전라남도 고흥군 고흥읍호형리 1229,고흥동초등학교,1,34.60558883191726,127.29176168573177
1210,경북,경상북도 포항시 북구 흥해읍 칠포로7(용천리1202번지),곡강초등학교,1,36.130337043132585,129.3486350830697
1211,경기,경기도 군포시 산본2동1058번지,곡란초등학교,1,37.37391739525085,126.93371411834083
1212,경기,경기도 수원시 권선구 덕영대로1323번길 26-14. 곡반초등학교 (권선동. 곡반초등학교),곡반초등학교,1,37.246725911872026,127.03617992094551
1213,경기,경기도 수원시 권선구 덕영대로1217번길 36(권선동.곡선초등학교),곡선초등학교,1,37.25049511039949,127.02526183130459
1214,전남,전라남도 곡성군 곡성읍학교로 103,곡성중앙초등학교,1,35.28423686426447,127.29153745145241
1215,경북,경상북도 김천시 감문면 태촌리785번지,곡송초등학교,1,36.203463970458344,128.21998913984785
1216,경기,경기도 양평군 지평면 곡수리387-1,곡수초등학교,1,37.418247344727774,127.6118013119584
1217,경남,경상남도 사천시 곤명면 정곡리848-1,곤명초등학교,1,35.130649368008804,127.97446325603529
1218,경남,경상남도 사천시 곤명면 정곡리848-1,완사초등학교,1,35.130649368008804,127.97446325603529
1219,경남,경상남도 사천시 곤명면 정곡리848-1,곤명초등학교,1,35.130649368008804,127.97446325603529
1220,경남,경상남도 사천시 곤명면 정곡리848-1,완사초등학교,1,35.130649368008804,127.97446325603529
1221,경기,경기도 광주시 실촌읍 곤지암리453-2,곤지암초등학교,1,37.34947151099231,127.33794875749172
1222,전남,전라남도 광양시 황길동827,골약초등학교,1,34.91030810474776,127.66049101582679
1223,전북,전북 부안군 진서면 진서리1047,곰소초등학교,1,35.5956714445895,126.59978778785744
1224,경북,경상북도 상주시 공검면 부곡리9-1,공검초등학교,1,36.51553583079961,128.1544294413842
1225,경기,경기도 안성시 공도읍공도1로 9,공도초등학교,1,36.99975054999642,127.16757740937435
1226,경북,경상북도 상주시 공성면 석단로217-16,공서초등학교,1,36.29980310183796,128.0777621917735
1227,경기,경기도 용인시 기흥구 탑실로86-10,공세초등학교,1,37.2389540237565,127.1164535546007
1228,전북,전북 고창군 공음면 칠암리519,공음초등학교,1,35.37668262713873,126.51133629008093
1229,충남,충청남도 공주시 하선길 47(금학동.공주교육대학교부설초등학교),공주교육대학교부설초등학교,1,36.44201436122986,127.11792383051242
1230,충남,충청남도 공주시 중학동137-2 (공주고담길19),공주금학초등학교,1,36.447583633432735,127.12494608389198
1231,충남,충청남도 공주시 오거리길 5(봉황동.공주봉황초등학교),공주봉황초등학교,1,36.44937912022214,127.12109394765362
1232,충남,충청남도 공주시 중동244-3,공주중동초등학교,1,36.45346978647249,127.12519201320113
1233,전남,전라남도 고흥군 과역면과역리 과역로 815,과역초등학교,1,34.680524964371905,127.35740908302007
1234,부산,부산광역시 연제구 연산9동   473-1과정초등학교,과정초등학교,1,35.18671584163037,129.10990576454253
1235,경기,경기도 과천시중앙동 75번지(온온사로10),과천초등학교,1,37.436654066263024,126.99412429969921
1236,제주,제주특별자치도 제주시 애월읍 일주서로 6000(애월읍.곽금초등학교),곽금초등학교,1,33.44696898243572,126.30738698496523
1237,충북,충청북도 보은군 마로면 관기송현로109,관기초등학교,1,36.43592942192879,127.82156212707905
1238,충남,충청남도 보령시 웅천읍 죽청리121-4,관당초등학교,1,36.2459758223609,126.55763000923002
1239,충남,충청남도 아산시 둔포면 산전리산전길 19,관대초등학교,1,36.89837150095343,127.03698418110123
1240,경남,경상남도 함안군 법수면 강주리408-2,관동초등학교,1,35.32241914818858,128.33028231791138
1241,경기,경기도 군포시 산본1동1054번지,관모초등학교,1,37.37605346182865,126.93821933623931
1242,경기,경기도 과천시 부림동48번지,관문초등학교,1,37.43387547121732,127.00134684150943
1243,경남,경상남도 진주시 정촌면 정촌로 629관봉초등학교,관봉초등학교,1,35.13672536689848,128.14347759254608
1244,전남,전라남도 장흥군 관산읍삼산리 97,관산남초등학교,1,34.526262901568906,126.95467654103871
1245,전남,전라남도 장흥군 관산읍옥당리 405,관산초등학교,1,34.561103118452856,126.94011305791187
1246,강원,강원도 원주시 치악로1355,관설초등학교,1,37.30869643110049,127.97627920404184
1247,경기,경기도 포천시 관인면 탄동리664-1,관인초등학교,1,38.156654810495596,127.25043197511452
1248,충남,충청남도 보령시 주교면 한술1길 17충청남도 보령시 주교면 관창리 130-3,관창초등학교,1,36.385194337847466,126.58293607835787
1249,전북,전북 정읍시 고부면 관청리548,관청초등학교,0,35.61559416536689,126.74444840976416
1250,전북,전북 임실군 관촌면 관촌리502,관촌초등학교,1,35.67653261595301,127.27163866186741
1251,경북,경상북도 칠곡군 약목면 무림리730,관호초등학교,1,36.020466737606185,128.38100863231304
1252,경기,경기도 수원시 영통구 이의동711번지,광교초등학교,1,37.30321080103587,127.04529818094049
1253,충남,충청남도 홍성군 광천읍 옹암리353-2,광남초등학교,1,36.491864734253696,126.61792695518473
1254,경남,경상남도 통영시 광도면노산1길 16,광도초등학교,1,34.900633611340965,128.40609379558714
1255,충남,충청남도 홍성군 광천읍 홍남로 705번길 16(충남 홍성군 광천읍 광천리 157),광동초등학교,1,36.506189070277344,126.6292290728372
1256,경남,경상남도 창원시 마산회원구 내서읍삼계1길 47,광려초등학교,1,35.228315644993266,128.50343483290794
1257,제주,제주특별자치도 제주시 애월읍 광성로 276(애월읍.광령초등학교),광령초등학교,1,33.459828286898656,126.43680075518
1258,경기,경기도 남양주시 진접읍 팔야리762,광릉초등학교,1,37.74571784702234,127.20719142597771
1259,광주,광주광역시 서구 하남대로710번길 19광림초등학교,광림초등학교,1,35.16939880235016,126.87071302113077
1260,경기,경기도 광명시 철산3동498번지,광명광덕초등학교,1,37.47334289958256,126.86576512091978
1261,경기,경기도 광명시 철산로 59. 광명광성초등학교 (철산동),광명광성초등학교,1,37.47832432803661,126.87286974938185
1262,경기,경기도 광명시 광명로 866-9. 광명남초등학교 (광명동. 광명남초등학교),광명남초등학교,1,37.475563271407225,126.85385443932488
1263,경기,경기도 광명시 철산동78-4,광명동초등학교,1,37.483499780352716,126.86324143877066
1264,경기,경기도 광명시 철산2동87번지,광명북초등학교,1,37.48670923465839,126.86805234922824
1265,경기,경기도 광명시 너부대로 5. 광명서초등학교 (광명동.광명서초등학교),광명서초등학교,1,37.47817466731527,126.84695289999165
1266,경기,경기도 광명시 덕단이로 29(광명동.광문초등학교),광문초등학교,1,37.46658996555583,126.85156590946184
1267,경기,경기도 양주시 고읍남로191번길 12. 광사초등학교 (광사동),광사초등학교,1,37.791253569281494,127.0837821124774
1268,강원,강원도 고성군 간성읍 진부령로2427,광산초등학교,1,38.374817246945966,128.41327192217798
1269,강원,강원도 고성군 간성읍 흘리령길3-15,광산초등학교흘리분교장,1,38.26649857188762,128.3742230503996
1270,경기,경기도 안성시 죽산면 두교리203-1,광선초등학교,1,37.00808995424551,127.43296323489436
1271,충남,충청남도 홍성군 갈산면 취생리250(충청남도 홍성군 갈산면 갈산서길 475번길 14),광성초등학교,1,36.63896351702528,126.53018547910109
1272,경기,경기도 양주시 삼숭로58번길 100. 광숭초등학교 (삼숭동),광숭초등학교,1,37.8015705364873,127.10705744045526
1273,충남,충청남도 홍성군 광천읍 원촌길 72번길9,광신초등학교,1,36.497766719493704,126.62975140291368
1274,전남,전라남도 광양시 광영동250,광양가야초등학교,1,34.96676860440526,127.71302463304752
1275,전남,전라남도 광양시 광양읍제철로 59(광양시 광양읍 용강리 65),광양남초등학교,1,34.96003777789977,127.60674593723594
1276,전남,전라남도 광양시 광양읍덕례리 448,광양덕례초등학교,1,34.968660437090364,127.57064401782648
1277,전남,전라남도 광양시 광양읍인서리 221,광양동초등학교,1,34.971411383933194,127.58729006336971
1278,전남,전라남도 광양시 진등6길 14(마동.광양마동초등학교),광양마동초등학교,1,34.955641322031134,127.68943793587749
1279,전남,전라남도 광양시 광양읍 와룡길 60(광양읍),광양마로초등학교,1,34.96774041800901,127.61222945019341
1280,전남,전라남도 광양시 중동1656,광양백운초등학교,1,34.93719659929273,127.69181856821574
